%time,field.header.seq,field.header.stamp,field.header.frame_id,field.twist.linear.x,field.twist.linear.y,field.twist.linear.z,field.twist.angular.x,field.twist.angular.y,field.twist.angular.z
1783583646162964621,1422,1783583646162964621,base_link,-0.0940268933773,0.122427783906,-0.00391688803211,0.00371920683229,-0.00510092464503,0.0168519101852
1783583646162964621,1422,1783583646162964621,base_link,-0.0940268933773,0.122427783906,-0.00391688803211,0.00371920683229,-0.00510092464503,0.0168519101852
1783583646162964621,1422,1783583646162964621,base_link,-0.0940268933773,0.122427783906,-0.00391688803211,0.00371920683229,-0.00510092464503,0.0168519101852
1783583646162964621,1422,1783583646162964621,base_link,-0.0940268933773,0.122427783906,-0.00391688803211,0.00371920683229,-0.00510092464503,0.0168519101852
1783583646162964621,1422,1783583646162964621,base_link,-0.0940268933773,0.122427783906,-0.00391688803211,0.00371920683229,-0.00510092464503,0.0168519101852
1783583646162964621,1422,1783583646162964621,base_link,-0.0940268933773,0.122427783906,-0.00391688803211,0.00371920683229,-0.00510092464503,0.0168519101852
1783583646162964621,1422,1783583646162964621,base_link,-0.0940268933773,0.122427783906,-0.00391688803211,0.00371920683229,-0.00510092464503,0.0168519101852
1783583646162964621,1422,1783583646162964621,base_link,-0.0940268933773,0.122427783906,-0.00391688803211,0.00371920683229,-0.00510092464503,0.0168519101852
1783583646162964621,1422,1783583646162964621,base_link,-0.0940268933773,0.122427783906,-0.00391688803211,0.00371920683229,-0.00510092464503,0.0168519101852
1783583646162964621,1422,1783583646162964621,base_link,-0.0940268933773,0.122427783906,-0.00391688803211,0.00371920683229,-0.00510092464503,0.0168519101852
1783583646663265304,1423,1783583646663265304,base_link,-0.11042226851,0.125311046839,-0.0056498828344,-0.00298897261815,-0.00114512183468,0.0340932402797
1783583646663265304,1423,1783583646663265304,base_link,-0.11042226851,0.125311046839,-0.0056498828344,-0.00298897261815,-0.00114512183468,0.0340932402797
1783583646663265304,1423,1783583646663265304,base_link,-0.11042226851,0.125311046839,-0.0056498828344,-0.00298897261815,-0.00114512183468,0.0340932402797
1783583646663265304,1423,1783583646663265304,base_link,-0.11042226851,0.125311046839,-0.0056498828344,-0.00298897261815,-0.00114512183468,0.0340932402797
1783583646663265304,1423,1783583646663265304,base_link,-0.11042226851,0.125311046839,-0.0056498828344,-0.00298897261815,-0.00114512183468,0.0340932402797
1783583646663265304,1423,1783583646663265304,base_link,-0.11042226851,0.125311046839,-0.0056498828344,-0.00298897261815,-0.00114512183468,0.0340932402797
1783583646663265304,1423,1783583646663265304,base_link,-0.11042226851,0.125311046839,-0.0056498828344,-0.00298897261815,-0.00114512183468,0.0340932402797
1783583646663265304,1423,1783583646663265304,base_link,-0.11042226851,0.125311046839,-0.0056498828344,-0.00298897261815,-0.00114512183468,0.0340932402797
1783583646663265304,1423,1783583646663265304,base_link,-0.11042226851,0.125311046839,-0.0056498828344,-0.00298897261815,-0.00114512183468,0.0340932402797
1783583646663265304,1423,1783583646663265304,base_link,-0.11042226851,0.125311046839,-0.0056498828344,-0.00298897261815,-0.00114512183468,0.0340932402797
1783583647163042013,1424,1783583647163042013,base_link,-0.126106873155,0.132685095072,0.000156524110935,0.000413032410074,-0.00568758470785,0.0334844974613
1783583647163042013,1424,1783583647163042013,base_link,-0.126106873155,0.132685095072,0.000156524110935,0.000413032410074,-0.00568758470785,0.0334844974613
1783583647163042013,1424,1783583647163042013,base_link,-0.126106873155,0.132685095072,0.000156524110935,0.000413032410074,-0.00568758470785,0.0334844974613
1783583647163042013,1424,1783583647163042013,base_link,-0.126106873155,0.132685095072,0.000156524110935,0.000413032410074,-0.00568758470785,0.0334844974613
1783583647163042013,1424,1783583647163042013,base_link,-0.126106873155,0.132685095072,0.000156524110935,0.000413032410074,-0.00568758470785,0.0334844974613
1783583647163042013,1424,1783583647163042013,base_link,-0.126106873155,0.132685095072,0.000156524110935,0.000413032410074,-0.00568758470785,0.0334844974613
1783583647163042013,1424,1783583647163042013,base_link,-0.126106873155,0.132685095072,0.000156524110935,0.000413032410074,-0.00568758470785,0.0334844974613
1783583647163042013,1424,1783583647163042013,base_link,-0.126106873155,0.132685095072,0.000156524110935,0.000413032410074,-0.00568758470785,0.0334844974613
1783583647163042013,1424,1783583647163042013,base_link,-0.126106873155,0.132685095072,0.000156524110935,0.000413032410074,-0.00568758470785,0.0334844974613
1783583647163042013,1424,1783583647163042013,base_link,-0.126106873155,0.132685095072,0.000156524110935,0.000413032410074,-0.00568758470785,0.0334844974613
1783583647663313058,1425,1783583647663313058,base_link,-0.124123446643,0.149906814098,0.00499460473657,0.00591241306182,-0.00242883430372,-0.00138601023159
1783583647663313058,1425,1783583647663313058,base_link,-0.124123446643,0.149906814098,0.00499460473657,0.00591241306182,-0.00242883430372,-0.00138601023159
1783583647663313058,1425,1783583647663313058,base_link,-0.124123446643,0.149906814098,0.00499460473657,0.00591241306182,-0.00242883430372,-0.00138601023159
1783583647663313058,1425,1783583647663313058,base_link,-0.124123446643,0.149906814098,0.00499460473657,0.00591241306182,-0.00242883430372,-0.00138601023159
1783583647663313058,1425,1783583647663313058,base_link,-0.124123446643,0.149906814098,0.00499460473657,0.00591241306182,-0.00242883430372,-0.00138601023159
1783583647663313058,1425,1783583647663313058,base_link,-0.124123446643,0.149906814098,0.00499460473657,0.00591241306182,-0.00242883430372,-0.00138601023159
1783583647663313058,1425,1783583647663313058,base_link,-0.124123446643,0.149906814098,0.00499460473657,0.00591241306182,-0.00242883430372,-0.00138601023159
1783583647663313058,1425,1783583647663313058,base_link,-0.124123446643,0.149906814098,0.00499460473657,0.00591241306182,-0.00242883430372,-0.00138601023159
1783583647663313058,1425,1783583647663313058,base_link,-0.124123446643,0.149906814098,0.00499460473657,0.00591241306182,-0.00242883430372,-0.00138601023159
1783583647663313058,1425,1783583647663313058,base_link,-0.124123446643,0.149906814098,0.00499460473657,0.00591241306182,-0.00242883430372,-0.00138601023159
1783583648163196988,1426,1783583648163196988,base_link,-0.147396400571,0.158822402358,0.0119813689962,0.0141212322415,-0.0543718265142,0.235323505814
1783583648163196988,1426,1783583648163196988,base_link,-0.147396400571,0.158822402358,0.0119813689962,0.0141212322415,-0.0543718265142,0.235323505814
1783583648163196988,1426,1783583648163196988,base_link,-0.147396400571,0.158822402358,0.0119813689962,0.0141212322415,-0.0543718265142,0.235323505814
1783583648163196988,1426,1783583648163196988,base_link,-0.147396400571,0.158822402358,0.0119813689962,0.0141212322415,-0.0543718265142,0.235323505814
1783583648163196988,1426,1783583648163196988,base_link,-0.147396400571,0.158822402358,0.0119813689962,0.0141212322415,-0.0543718265142,0.235323505814
1783583648163196988,1426,1783583648163196988,base_link,-0.147396400571,0.158822402358,0.0119813689962,0.0141212322415,-0.0543718265142,0.235323505814
1783583648163196988,1426,1783583648163196988,base_link,-0.147396400571,0.158822402358,0.0119813689962,0.0141212322415,-0.0543718265142,0.235323505814
1783583648163196988,1426,1783583648163196988,base_link,-0.147396400571,0.158822402358,0.0119813689962,0.0141212322415,-0.0543718265142,0.235323505814
1783583648163196988,1426,1783583648163196988,base_link,-0.147396400571,0.158822402358,0.0119813689962,0.0141212322415,-0.0543718265142,0.235323505814
1783583648163196988,1426,1783583648163196988,base_link,-0.147396400571,0.158822402358,0.0119813689962,0.0141212322415,-0.0543718265142,0.235323505814
1783583648663092510,1427,1783583648663092510,base_link,-0.208970054984,0.147176399827,0.0197803862393,0.00642720960898,-0.023408294877,0.111050769937
1783583648663092510,1427,1783583648663092510,base_link,-0.208970054984,0.147176399827,0.0197803862393,0.00642720960898,-0.023408294877,0.111050769937
1783583648663092510,1427,1783583648663092510,base_link,-0.208970054984,0.147176399827,0.0197803862393,0.00642720960898,-0.023408294877,0.111050769937
1783583648663092510,1427,1783583648663092510,base_link,-0.208970054984,0.147176399827,0.0197803862393,0.00642720960898,-0.023408294877,0.111050769937
1783583648663092510,1427,1783583648663092510,base_link,-0.208970054984,0.147176399827,0.0197803862393,0.00642720960898,-0.023408294877,0.111050769937
1783583648663092510,1427,1783583648663092510,base_link,-0.208970054984,0.147176399827,0.0197803862393,0.00642720960898,-0.023408294877,0.111050769937
1783583648663092510,1427,1783583648663092510,base_link,-0.208970054984,0.147176399827,0.0197803862393,0.00642720960898,-0.023408294877,0.111050769937
1783583648663092510,1427,1783583648663092510,base_link,-0.208970054984,0.147176399827,0.0197803862393,0.00642720960898,-0.023408294877,0.111050769937
1783583648663092510,1427,1783583648663092510,base_link,-0.208970054984,0.147176399827,0.0197803862393,0.00642720960898,-0.023408294877,0.111050769937
1783583648663092510,1427,1783583648663092510,base_link,-0.208970054984,0.147176399827,0.0197803862393,0.00642720960898,-0.023408294877,0.111050769937
1783583649163079988,1428,1783583649163079988,base_link,-0.213556870818,0.16042663157,0.0176521502435,-0.0175190362092,0.0440746462741,-0.185972846802
1783583649163079988,1428,1783583649163079988,base_link,-0.213556870818,0.16042663157,0.0176521502435,-0.0175190362092,0.0440746462741,-0.185972846802
1783583649163079988,1428,1783583649163079988,base_link,-0.213556870818,0.16042663157,0.0176521502435,-0.0175190362092,0.0440746462741,-0.185972846802
1783583649163079988,1428,1783583649163079988,base_link,-0.213556870818,0.16042663157,0.0176521502435,-0.0175190362092,0.0440746462741,-0.185972846802
1783583649163079988,1428,1783583649163079988,base_link,-0.213556870818,0.16042663157,0.0176521502435,-0.0175190362092,0.0440746462741,-0.185972846802
1783583649163079988,1428,1783583649163079988,base_link,-0.213556870818,0.16042663157,0.0176521502435,-0.0175190362092,0.0440746462741,-0.185972846802
1783583649163079988,1428,1783583649163079988,base_link,-0.213556870818,0.16042663157,0.0176521502435,-0.0175190362092,0.0440746462741,-0.185972846802
1783583649163079988,1428,1783583649163079988,base_link,-0.213556870818,0.16042663157,0.0176521502435,-0.0175190362092,0.0440746462741,-0.185972846802
1783583649163079988,1428,1783583649163079988,base_link,-0.213556870818,0.16042663157,0.0176521502435,-0.0175190362092,0.0440746462741,-0.185972846802
1783583649163079988,1428,1783583649163079988,base_link,-0.213556870818,0.16042663157,0.0176521502435,-0.0175190362092,0.0440746462741,-0.185972846802
1783583649663175145,1429,1783583649663175145,base_link,-0.197240546346,0.193773090839,0.026825716719,0.000673946369106,0.0171714561798,-0.122682039262
1783583649663175145,1429,1783583649663175145,base_link,-0.197240546346,0.193773090839,0.026825716719,0.000673946369106,0.0171714561798,-0.122682039262
1783583649663175145,1429,1783583649663175145,base_link,-0.197240546346,0.193773090839,0.026825716719,0.000673946369106,0.0171714561798,-0.122682039262
1783583649663175145,1429,1783583649663175145,base_link,-0.197240546346,0.193773090839,0.026825716719,0.000673946369106,0.0171714561798,-0.122682039262
1783583649663175145,1429,1783583649663175145,base_link,-0.197240546346,0.193773090839,0.026825716719,0.000673946369106,0.0171714561798,-0.122682039262
1783583649663175145,1429,1783583649663175145,base_link,-0.197240546346,0.193773090839,0.026825716719,0.000673946369106,0.0171714561798,-0.122682039262
1783583649663175145,1429,1783583649663175145,base_link,-0.197240546346,0.193773090839,0.026825716719,0.000673946369106,0.0171714561798,-0.122682039262
1783583649663175145,1429,1783583649663175145,base_link,-0.197240546346,0.193773090839,0.026825716719,0.000673946369106,0.0171714561798,-0.122682039262
1783583649663175145,1429,1783583649663175145,base_link,-0.197240546346,0.193773090839,0.026825716719,0.000673946369106,0.0171714561798,-0.122682039262
1783583649663175145,1429,1783583649663175145,base_link,-0.197240546346,0.193773090839,0.026825716719,0.000673946369106,0.0171714561798,-0.122682039262
1783583650163087903,1430,1783583650163087903,base_link,-0.201593890786,0.184778317809,0.0277673900127,0.0239169438361,-0.0519579805836,0.211547027343
1783583650163087903,1430,1783583650163087903,base_link,-0.201593890786,0.184778317809,0.0277673900127,0.0239169438361,-0.0519579805836,0.211547027343
1783583650163087903,1430,1783583650163087903,base_link,-0.201593890786,0.184778317809,0.0277673900127,0.0239169438361,-0.0519579805836,0.211547027343
1783583650163087903,1430,1783583650163087903,base_link,-0.201593890786,0.184778317809,0.0277673900127,0.0239169438361,-0.0519579805836,0.211547027343
1783583650163087903,1430,1783583650163087903,base_link,-0.201593890786,0.184778317809,0.0277673900127,0.0239169438361,-0.0519579805836,0.211547027343
1783583650163087903,1430,1783583650163087903,base_link,-0.201593890786,0.184778317809,0.0277673900127,0.0239169438361,-0.0519579805836,0.211547027343
1783583650163087903,1430,1783583650163087903,base_link,-0.201593890786,0.184778317809,0.0277673900127,0.0239169438361,-0.0519579805836,0.211547027343
1783583650163087903,1430,1783583650163087903,base_link,-0.201593890786,0.184778317809,0.0277673900127,0.0239169438361,-0.0519579805836,0.211547027343
1783583650163087903,1430,1783583650163087903,base_link,-0.201593890786,0.184778317809,0.0277673900127,0.0239169438361,-0.0519579805836,0.211547027343
1783583650163087903,1430,1783583650163087903,base_link,-0.201593890786,0.184778317809,0.0277673900127,0.0239169438361,-0.0519579805836,0.211547027343
1783583650663224872,1431,1783583650663224872,base_link,-0.245191797614,0.162749394774,0.0275257546455,0.00365587985178,-0.0197473235493,0.0651592439656
1783583650663224872,1431,1783583650663224872,base_link,-0.245191797614,0.162749394774,0.0275257546455,0.00365587985178,-0.0197473235493,0.0651592439656
1783583650663224872,1431,1783583650663224872,base_link,-0.245191797614,0.162749394774,0.0275257546455,0.00365587985178,-0.0197473235493,0.0651592439656
1783583650663224872,1431,1783583650663224872,base_link,-0.245191797614,0.162749394774,0.0275257546455,0.00365587985178,-0.0197473235493,0.0651592439656
1783583650663224872,1431,1783583650663224872,base_link,-0.245191797614,0.162749394774,0.0275257546455,0.00365587985178,-0.0197473235493,0.0651592439656
1783583650663224872,1431,1783583650663224872,base_link,-0.245191797614,0.162749394774,0.0275257546455,0.00365587985178,-0.0197473235493,0.0651592439656
1783583650663224872,1431,1783583650663224872,base_link,-0.245191797614,0.162749394774,0.0275257546455,0.00365587985178,-0.0197473235493,0.0651592439656
1783583650663224872,1431,1783583650663224872,base_link,-0.245191797614,0.162749394774,0.0275257546455,0.00365587985178,-0.0197473235493,0.0651592439656
1783583650663224872,1431,1783583650663224872,base_link,-0.245191797614,0.162749394774,0.0275257546455,0.00365587985178,-0.0197473235493,0.0651592439656
1783583650663224872,1431,1783583650663224872,base_link,-0.245191797614,0.162749394774,0.0275257546455,0.00365587985178,-0.0197473235493,0.0651592439656
1783583651162937878,1432,1783583651162937878,base_link,-0.233288288116,0.165995061398,0.0259867701679,-0.0284057999293,0.070716164285,-0.241381942994
1783583651162937878,1432,1783583651162937878,base_link,-0.233288288116,0.165995061398,0.0259867701679,-0.0284057999293,0.070716164285,-0.241381942994
1783583651162937878,1432,1783583651162937878,base_link,-0.233288288116,0.165995061398,0.0259867701679,-0.0284057999293,0.070716164285,-0.241381942994
1783583651162937878,1432,1783583651162937878,base_link,-0.233288288116,0.165995061398,0.0259867701679,-0.0284057999293,0.070716164285,-0.241381942994
1783583651162937878,1432,1783583651162937878,base_link,-0.233288288116,0.165995061398,0.0259867701679,-0.0284057999293,0.070716164285,-0.241381942994
1783583651162937878,1432,1783583651162937878,base_link,-0.233288288116,0.165995061398,0.0259867701679,-0.0284057999293,0.070716164285,-0.241381942994
1783583651162937878,1432,1783583651162937878,base_link,-0.233288288116,0.165995061398,0.0259867701679,-0.0284057999293,0.070716164285,-0.241381942994
1783583651162937878,1432,1783583651162937878,base_link,-0.233288288116,0.165995061398,0.0259867701679,-0.0284057999293,0.070716164285,-0.241381942994
1783583651162937878,1432,1783583651162937878,base_link,-0.233288288116,0.165995061398,0.0259867701679,-0.0284057999293,0.070716164285,-0.241381942994
1783583651162937878,1432,1783583651162937878,base_link,-0.233288288116,0.165995061398,0.0259867701679,-0.0284057999293,0.070716164285,-0.241381942994
1783583651663903483,1433,1783583651663903483,base_link,-0.188012093306,0.217698350549,0.0314876288176,-0.0103118260052,0.0396693357044,-0.207442035249
1783583651663903483,1433,1783583651663903483,base_link,-0.188012093306,0.217698350549,0.0314876288176,-0.0103118260052,0.0396693357044,-0.207442035249
1783583651663903483,1433,1783583651663903483,base_link,-0.188012093306,0.217698350549,0.0314876288176,-0.0103118260052,0.0396693357044,-0.207442035249
1783583651663903483,1433,1783583651663903483,base_link,-0.188012093306,0.217698350549,0.0314876288176,-0.0103118260052,0.0396693357044,-0.207442035249
1783583651663903483,1433,1783583651663903483,base_link,-0.188012093306,0.217698350549,0.0314876288176,-0.0103118260052,0.0396693357044,-0.207442035249
1783583651663903483,1433,1783583651663903483,base_link,-0.188012093306,0.217698350549,0.0314876288176,-0.0103118260052,0.0396693357044,-0.207442035249
1783583651663903483,1433,1783583651663903483,base_link,-0.188012093306,0.217698350549,0.0314876288176,-0.0103118260052,0.0396693357044,-0.207442035249
1783583651663903483,1433,1783583651663903483,base_link,-0.188012093306,0.217698350549,0.0314876288176,-0.0103118260052,0.0396693357044,-0.207442035249
1783583651663903483,1433,1783583651663903483,base_link,-0.188012093306,0.217698350549,0.0314876288176,-0.0103118260052,0.0396693357044,-0.207442035249
1783583651663903483,1433,1783583651663903483,base_link,-0.188012093306,0.217698350549,0.0314876288176,-0.0103118260052,0.0396693357044,-0.207442035249
1783583652163816623,1434,1783583652163816623,base_link,-0.180865556002,0.214283183217,0.0279870908707,0.0266804617917,-0.0741443961236,0.240729642974
1783583652163816623,1434,1783583652163816623,base_link,-0.180865556002,0.214283183217,0.0279870908707,0.0266804617917,-0.0741443961236,0.240729642974
1783583652163816623,1434,1783583652163816623,base_link,-0.180865556002,0.214283183217,0.0279870908707,0.0266804617917,-0.0741443961236,0.240729642974
1783583652163816623,1434,1783583652163816623,base_link,-0.180865556002,0.214283183217,0.0279870908707,0.0266804617917,-0.0741443961236,0.240729642974
1783583652163816623,1434,1783583652163816623,base_link,-0.180865556002,0.214283183217,0.0279870908707,0.0266804617917,-0.0741443961236,0.240729642974
1783583652163816623,1434,1783583652163816623,base_link,-0.180865556002,0.214283183217,0.0279870908707,0.0266804617917,-0.0741443961236,0.240729642974
1783583652163816623,1434,1783583652163816623,base_link,-0.180865556002,0.214283183217,0.0279870908707,0.0266804617917,-0.0741443961236,0.240729642974
1783583652163816623,1434,1783583652163816623,base_link,-0.180865556002,0.214283183217,0.0279870908707,0.0266804617917,-0.0741443961236,0.240729642974
1783583652163816623,1434,1783583652163816623,base_link,-0.180865556002,0.214283183217,0.0279870908707,0.0266804617917,-0.0741443961236,0.240729642974
1783583652163816623,1434,1783583652163816623,base_link,-0.180865556002,0.214283183217,0.0279870908707,0.0266804617917,-0.0741443961236,0.240729642974
1783583652663880921,1435,1783583652663880921,base_link,-0.246012061834,0.2024269104,0.0184831097722,0.0133821564745,-0.0560778235537,0.191444208034
1783583652663880921,1435,1783583652663880921,base_link,-0.246012061834,0.2024269104,0.0184831097722,0.0133821564745,-0.0560778235537,0.191444208034
1783583652663880921,1435,1783583652663880921,base_link,-0.246012061834,0.2024269104,0.0184831097722,0.0133821564745,-0.0560778235537,0.191444208034
1783583652663880921,1435,1783583652663880921,base_link,-0.246012061834,0.2024269104,0.0184831097722,0.0133821564745,-0.0560778235537,0.191444208034
1783583652663880921,1435,1783583652663880921,base_link,-0.246012061834,0.2024269104,0.0184831097722,0.0133821564745,-0.0560778235537,0.191444208034
1783583652663880921,1435,1783583652663880921,base_link,-0.246012061834,0.2024269104,0.0184831097722,0.0133821564745,-0.0560778235537,0.191444208034
1783583652663880921,1435,1783583652663880921,base_link,-0.246012061834,0.2024269104,0.0184831097722,0.0133821564745,-0.0560778235537,0.191444208034
1783583652663880921,1435,1783583652663880921,base_link,-0.246012061834,0.2024269104,0.0184831097722,0.0133821564745,-0.0560778235537,0.191444208034
1783583652663880921,1435,1783583652663880921,base_link,-0.246012061834,0.2024269104,0.0184831097722,0.0133821564745,-0.0560778235537,0.191444208034
1783583652663880921,1435,1783583652663880921,base_link,-0.246012061834,0.2024269104,0.0184831097722,0.0133821564745,-0.0560778235537,0.191444208034
1783583653163588738,1436,1783583653163588738,base_link,-0.229717731476,0.216263636947,0.00384106626734,-0.0338229972028,0.0857567507773,-0.288609788392
1783583653163588738,1436,1783583653163588738,base_link,-0.229717731476,0.216263636947,0.00384106626734,-0.0338229972028,0.0857567507773,-0.288609788392
1783583653163588738,1436,1783583653163588738,base_link,-0.229717731476,0.216263636947,0.00384106626734,-0.0338229972028,0.0857567507773,-0.288609788392
1783583653163588738,1436,1783583653163588738,base_link,-0.229717731476,0.216263636947,0.00384106626734,-0.0338229972028,0.0857567507773,-0.288609788392
1783583653163588738,1436,1783583653163588738,base_link,-0.229717731476,0.216263636947,0.00384106626734,-0.0338229972028,0.0857567507773,-0.288609788392
1783583653163588738,1436,1783583653163588738,base_link,-0.229717731476,0.216263636947,0.00384106626734,-0.0338229972028,0.0857567507773,-0.288609788392
1783583653163588738,1436,1783583653163588738,base_link,-0.229717731476,0.216263636947,0.00384106626734,-0.0338229972028,0.0857567507773,-0.288609788392
1783583653163588738,1436,1783583653163588738,base_link,-0.229717731476,0.216263636947,0.00384106626734,-0.0338229972028,0.0857567507773,-0.288609788392
1783583653163588738,1436,1783583653163588738,base_link,-0.229717731476,0.216263636947,0.00384106626734,-0.0338229972028,0.0857567507773,-0.288609788392
1783583653163588738,1436,1783583653163588738,base_link,-0.229717731476,0.216263636947,0.00384106626734,-0.0338229972028,0.0857567507773,-0.288609788392
1783583653663946576,1437,1783583653663946576,base_link,-0.176041558385,0.279993206263,0.00477900635451,-0.0119697805641,0.0635346160104,-0.252728136947
1783583653663946576,1437,1783583653663946576,base_link,-0.176041558385,0.279993206263,0.00477900635451,-0.0119697805641,0.0635346160104,-0.252728136947
1783583653663946576,1437,1783583653663946576,base_link,-0.176041558385,0.279993206263,0.00477900635451,-0.0119697805641,0.0635346160104,-0.252728136947
1783583653663946576,1437,1783583653663946576,base_link,-0.176041558385,0.279993206263,0.00477900635451,-0.0119697805641,0.0635346160104,-0.252728136947
1783583653663946576,1437,1783583653663946576,base_link,-0.176041558385,0.279993206263,0.00477900635451,-0.0119697805641,0.0635346160104,-0.252728136947
1783583653663946576,1437,1783583653663946576,base_link,-0.176041558385,0.279993206263,0.00477900635451,-0.0119697805641,0.0635346160104,-0.252728136947
1783583653663946576,1437,1783583653663946576,base_link,-0.176041558385,0.279993206263,0.00477900635451,-0.0119697805641,0.0635346160104,-0.252728136947
1783583653663946576,1437,1783583653663946576,base_link,-0.176041558385,0.279993206263,0.00477900635451,-0.0119697805641,0.0635346160104,-0.252728136947
1783583653663946576,1437,1783583653663946576,base_link,-0.176041558385,0.279993206263,0.00477900635451,-0.0119697805641,0.0635346160104,-0.252728136947
1783583653663946576,1437,1783583653663946576,base_link,-0.176041558385,0.279993206263,0.00477900635451,-0.0119697805641,0.0635346160104,-0.252728136947
1783583654163897343,1438,1783583654163897343,base_link,-0.173613205552,0.27233761549,-0.00587893882766,0.0240240920994,-0.08332831473,0.274908499089
1783583654163897343,1438,1783583654163897343,base_link,-0.173613205552,0.27233761549,-0.00587893882766,0.0240240920994,-0.08332831473,0.274908499089
1783583654163897343,1438,1783583654163897343,base_link,-0.173613205552,0.27233761549,-0.00587893882766,0.0240240920994,-0.08332831473,0.274908499089
1783583654163897343,1438,1783583654163897343,base_link,-0.173613205552,0.27233761549,-0.00587893882766,0.0240240920994,-0.08332831473,0.274908499089
1783583654163897343,1438,1783583654163897343,base_link,-0.173613205552,0.27233761549,-0.00587893882766,0.0240240920994,-0.08332831473,0.274908499089
1783583654163897343,1438,1783583654163897343,base_link,-0.173613205552,0.27233761549,-0.00587893882766,0.0240240920994,-0.08332831473,0.274908499089
1783583654163897343,1438,1783583654163897343,base_link,-0.173613205552,0.27233761549,-0.00587893882766,0.0240240920994,-0.08332831473,0.274908499089
1783583654163897343,1438,1783583654163897343,base_link,-0.173613205552,0.27233761549,-0.00587893882766,0.0240240920994,-0.08332831473,0.274908499089
1783583654163897343,1438,1783583654163897343,base_link,-0.173613205552,0.27233761549,-0.00587893882766,0.0240240920994,-0.08332831473,0.274908499089
1783583654163897343,1438,1783583654163897343,base_link,-0.173613205552,0.27233761549,-0.00587893882766,0.0240240920994,-0.08332831473,0.274908499089
1783583654663952134,1439,1783583654663952134,base_link,-0.243352204561,0.267549902201,-0.0169880874455,0.0129539012256,-0.0715560693669,0.209404253506
1783583654663952134,1439,1783583654663952134,base_link,-0.243352204561,0.267549902201,-0.0169880874455,0.0129539012256,-0.0715560693669,0.209404253506
1783583654663952134,1439,1783583654663952134,base_link,-0.243352204561,0.267549902201,-0.0169880874455,0.0129539012256,-0.0715560693669,0.209404253506
1783583654663952134,1439,1783583654663952134,base_link,-0.243352204561,0.267549902201,-0.0169880874455,0.0129539012256,-0.0715560693669,0.209404253506
1783583654663952134,1439,1783583654663952134,base_link,-0.243352204561,0.267549902201,-0.0169880874455,0.0129539012256,-0.0715560693669,0.209404253506
1783583654663952134,1439,1783583654663952134,base_link,-0.243352204561,0.267549902201,-0.0169880874455,0.0129539012256,-0.0715560693669,0.209404253506
1783583654663952134,1439,1783583654663952134,base_link,-0.243352204561,0.267549902201,-0.0169880874455,0.0129539012256,-0.0715560693669,0.209404253506
1783583654663952134,1439,1783583654663952134,base_link,-0.243352204561,0.267549902201,-0.0169880874455,0.0129539012256,-0.0715560693669,0.209404253506
1783583654663952134,1439,1783583654663952134,base_link,-0.243352204561,0.267549902201,-0.0169880874455,0.0129539012256,-0.0715560693669,0.209404253506
1783583654663952134,1439,1783583654663952134,base_link,-0.243352204561,0.267549902201,-0.0169880874455,0.0129539012256,-0.0715560693669,0.209404253506
1783583655163757827,1440,1783583655163757827,base_link,-0.235350683331,0.272937685251,-0.0363000892103,-0.0275219777922,0.0796432096935,-0.28987538224
1783583655163757827,1440,1783583655163757827,base_link,-0.235350683331,0.272937685251,-0.0363000892103,-0.0275219777922,0.0796432096935,-0.28987538224
1783583655163757827,1440,1783583655163757827,base_link,-0.235350683331,0.272937685251,-0.0363000892103,-0.0275219777922,0.0796432096935,-0.28987538224
1783583655163757827,1440,1783583655163757827,base_link,-0.235350683331,0.272937685251,-0.0363000892103,-0.0275219777922,0.0796432096935,-0.28987538224
1783583655163757827,1440,1783583655163757827,base_link,-0.235350683331,0.272937685251,-0.0363000892103,-0.0275219777922,0.0796432096935,-0.28987538224
1783583655163757827,1440,1783583655163757827,base_link,-0.235350683331,0.272937685251,-0.0363000892103,-0.0275219777922,0.0796432096935,-0.28987538224
1783583655163757827,1440,1783583655163757827,base_link,-0.235350683331,0.272937685251,-0.0363000892103,-0.0275219777922,0.0796432096935,-0.28987538224
1783583655163757827,1440,1783583655163757827,base_link,-0.235350683331,0.272937685251,-0.0363000892103,-0.0275219777922,0.0796432096935,-0.28987538224
1783583655163757827,1440,1783583655163757827,base_link,-0.235350683331,0.272937685251,-0.0363000892103,-0.0275219777922,0.0796432096935,-0.28987538224
1783583655163757827,1440,1783583655163757827,base_link,-0.235350683331,0.272937685251,-0.0363000892103,-0.0275219777922,0.0796432096935,-0.28987538224
1783583655664038894,1441,1783583655664038894,base_link,-0.180466964841,0.33447009325,-0.0358962863684,-0.0186332528745,0.070464060868,-0.258754317478
1783583655664038894,1441,1783583655664038894,base_link,-0.180466964841,0.33447009325,-0.0358962863684,-0.0186332528745,0.070464060868,-0.258754317478
1783583655664038894,1441,1783583655664038894,base_link,-0.180466964841,0.33447009325,-0.0358962863684,-0.0186332528745,0.070464060868,-0.258754317478
1783583655664038894,1441,1783583655664038894,base_link,-0.180466964841,0.33447009325,-0.0358962863684,-0.0186332528745,0.070464060868,-0.258754317478
1783583655664038894,1441,1783583655664038894,base_link,-0.180466964841,0.33447009325,-0.0358962863684,-0.0186332528745,0.070464060868,-0.258754317478
1783583655664038894,1441,1783583655664038894,base_link,-0.180466964841,0.33447009325,-0.0358962863684,-0.0186332528745,0.070464060868,-0.258754317478
1783583655664038894,1441,1783583655664038894,base_link,-0.180466964841,0.33447009325,-0.0358962863684,-0.0186332528745,0.070464060868,-0.258754317478
1783583655664038894,1441,1783583655664038894,base_link,-0.180466964841,0.33447009325,-0.0358962863684,-0.0186332528745,0.070464060868,-0.258754317478
1783583655664038894,1441,1783583655664038894,base_link,-0.180466964841,0.33447009325,-0.0358962863684,-0.0186332528745,0.070464060868,-0.258754317478
1783583655664038894,1441,1783583655664038894,base_link,-0.180466964841,0.33447009325,-0.0358962863684,-0.0186332528745,0.070464060868,-0.258754317478
1783583656163862534,1442,1783583656163862534,base_link,-0.179491996765,0.325100392103,-0.030613206327,0.0282690075899,-0.0864264171445,0.263098372779
1783583656163862534,1442,1783583656163862534,base_link,-0.179491996765,0.325100392103,-0.030613206327,0.0282690075899,-0.0864264171445,0.263098372779
1783583656163862534,1442,1783583656163862534,base_link,-0.179491996765,0.325100392103,-0.030613206327,0.0282690075899,-0.0864264171445,0.263098372779
1783583656163862534,1442,1783583656163862534,base_link,-0.179491996765,0.325100392103,-0.030613206327,0.0282690075899,-0.0864264171445,0.263098372779
1783583656163862534,1442,1783583656163862534,base_link,-0.179491996765,0.325100392103,-0.030613206327,0.0282690075899,-0.0864264171445,0.263098372779
1783583656163862534,1442,1783583656163862534,base_link,-0.179491996765,0.325100392103,-0.030613206327,0.0282690075899,-0.0864264171445,0.263098372779
1783583656163862534,1442,1783583656163862534,base_link,-0.179491996765,0.325100392103,-0.030613206327,0.0282690075899,-0.0864264171445,0.263098372779
1783583656163862534,1442,1783583656163862534,base_link,-0.179491996765,0.325100392103,-0.030613206327,0.0282690075899,-0.0864264171445,0.263098372779
1783583656163862534,1442,1783583656163862534,base_link,-0.179491996765,0.325100392103,-0.030613206327,0.0282690075899,-0.0864264171445,0.263098372779
1783583656163862534,1442,1783583656163862534,base_link,-0.179491996765,0.325100392103,-0.030613206327,0.0282690075899,-0.0864264171445,0.263098372779
1783583656664009301,1443,1783583656664009301,base_link,-0.252107590437,0.318873614073,-0.0202220212668,0.0110364861069,-0.0737390236483,0.213954431727
1783583656664009301,1443,1783583656664009301,base_link,-0.252107590437,0.318873614073,-0.0202220212668,0.0110364861069,-0.0737390236483,0.213954431727
1783583656664009301,1443,1783583656664009301,base_link,-0.252107590437,0.318873614073,-0.0202220212668,0.0110364861069,-0.0737390236483,0.213954431727
1783583656664009301,1443,1783583656664009301,base_link,-0.252107590437,0.318873614073,-0.0202220212668,0.0110364861069,-0.0737390236483,0.213954431727
1783583656664009301,1443,1783583656664009301,base_link,-0.252107590437,0.318873614073,-0.0202220212668,0.0110364861069,-0.0737390236483,0.213954431727
1783583656664009301,1443,1783583656664009301,base_link,-0.252107590437,0.318873614073,-0.0202220212668,0.0110364861069,-0.0737390236483,0.213954431727
1783583656664009301,1443,1783583656664009301,base_link,-0.252107590437,0.318873614073,-0.0202220212668,0.0110364861069,-0.0737390236483,0.213954431727
1783583656664009301,1443,1783583656664009301,base_link,-0.252107590437,0.318873614073,-0.0202220212668,0.0110364861069,-0.0737390236483,0.213954431727
1783583656664009301,1443,1783583656664009301,base_link,-0.252107590437,0.318873614073,-0.0202220212668,0.0110364861069,-0.0737390236483,0.213954431727
1783583656664009301,1443,1783583656664009301,base_link,-0.252107590437,0.318873614073,-0.0202220212668,0.0110364861069,-0.0737390236483,0.213954431727
1783583657163772127,1444,1783583657163772127,base_link,-0.24401627481,0.321311742067,-0.0156665090472,-0.022595184063,0.081397625487,-0.276411986535
1783583657163772127,1444,1783583657163772127,base_link,-0.24401627481,0.321311742067,-0.0156665090472,-0.022595184063,0.081397625487,-0.276411986535
1783583657163772127,1444,1783583657163772127,base_link,-0.24401627481,0.321311742067,-0.0156665090472,-0.022595184063,0.081397625487,-0.276411986535
1783583657163772127,1444,1783583657163772127,base_link,-0.24401627481,0.321311742067,-0.0156665090472,-0.022595184063,0.081397625487,-0.276411986535
1783583657163772127,1444,1783583657163772127,base_link,-0.24401627481,0.321311742067,-0.0156665090472,-0.022595184063,0.081397625487,-0.276411986535
1783583657163772127,1444,1783583657163772127,base_link,-0.24401627481,0.321311742067,-0.0156665090472,-0.022595184063,0.081397625487,-0.276411986535
1783583657163772127,1444,1783583657163772127,base_link,-0.24401627481,0.321311742067,-0.0156665090472,-0.022595184063,0.081397625487,-0.276411986535
1783583657163772127,1444,1783583657163772127,base_link,-0.24401627481,0.321311742067,-0.0156665090472,-0.022595184063,0.081397625487,-0.276411986535
1783583657163772127,1444,1783583657163772127,base_link,-0.24401627481,0.321311742067,-0.0156665090472,-0.022595184063,0.081397625487,-0.276411986535
1783583657163772127,1444,1783583657163772127,base_link,-0.24401627481,0.321311742067,-0.0156665090472,-0.022595184063,0.081397625487,-0.276411986535
1783583657663960136,1445,1783583657663960136,base_link,-0.18614564836,0.371630489826,0.000893913733307,-0.0103391345011,0.0684101146394,-0.256103886147
1783583657663960136,1445,1783583657663960136,base_link,-0.18614564836,0.371630489826,0.000893913733307,-0.0103391345011,0.0684101146394,-0.256103886147
1783583657663960136,1445,1783583657663960136,base_link,-0.18614564836,0.371630489826,0.000893913733307,-0.0103391345011,0.0684101146394,-0.256103886147
1783583657663960136,1445,1783583657663960136,base_link,-0.18614564836,0.371630489826,0.000893913733307,-0.0103391345011,0.0684101146394,-0.256103886147
1783583657663960136,1445,1783583657663960136,base_link,-0.18614564836,0.371630489826,0.000893913733307,-0.0103391345011,0.0684101146394,-0.256103886147
1783583657663960136,1445,1783583657663960136,base_link,-0.18614564836,0.371630489826,0.000893913733307,-0.0103391345011,0.0684101146394,-0.256103886147
1783583657663960136,1445,1783583657663960136,base_link,-0.18614564836,0.371630489826,0.000893913733307,-0.0103391345011,0.0684101146394,-0.256103886147
1783583657663960136,1445,1783583657663960136,base_link,-0.18614564836,0.371630489826,0.000893913733307,-0.0103391345011,0.0684101146394,-0.256103886147
1783583657663960136,1445,1783583657663960136,base_link,-0.18614564836,0.371630489826,0.000893913733307,-0.0103391345011,0.0684101146394,-0.256103886147
1783583657663960136,1445,1783583657663960136,base_link,-0.18614564836,0.371630489826,0.000893913733307,-0.0103391345011,0.0684101146394,-0.256103886147
1783583658163729385,1446,1783583658163729385,base_link,-0.17924579978,0.349080502987,0.0132221300155,0.0170009891213,-0.0713709320293,0.248788610843
1783583658163729385,1446,1783583658163729385,base_link,-0.17924579978,0.349080502987,0.0132221300155,0.0170009891213,-0.0713709320293,0.248788610843
1783583658163729385,1446,1783583658163729385,base_link,-0.17924579978,0.349080502987,0.0132221300155,0.0170009891213,-0.0713709320293,0.248788610843
1783583658163729385,1446,1783583658163729385,base_link,-0.17924579978,0.349080502987,0.0132221300155,0.0170009891213,-0.0713709320293,0.248788610843
1783583658163729385,1446,1783583658163729385,base_link,-0.17924579978,0.349080502987,0.0132221300155,0.0170009891213,-0.0713709320293,0.248788610843
1783583658163729385,1446,1783583658163729385,base_link,-0.17924579978,0.349080502987,0.0132221300155,0.0170009891213,-0.0713709320293,0.248788610843
1783583658163729385,1446,1783583658163729385,base_link,-0.17924579978,0.349080502987,0.0132221300155,0.0170009891213,-0.0713709320293,0.248788610843
1783583658163729385,1446,1783583658163729385,base_link,-0.17924579978,0.349080502987,0.0132221300155,0.0170009891213,-0.0713709320293,0.248788610843
1783583658163729385,1446,1783583658163729385,base_link,-0.17924579978,0.349080502987,0.0132221300155,0.0170009891213,-0.0713709320293,0.248788610843
1783583658163729385,1446,1783583658163729385,base_link,-0.17924579978,0.349080502987,0.0132221300155,0.0170009891213,-0.0713709320293,0.248788610843
1783583658663783185,1447,1783583658663783185,base_link,-0.249565780163,0.331116050482,0.0193441268057,0.012291956868,-0.0757376483644,0.221184581468
1783583658663783185,1447,1783583658663783185,base_link,-0.249565780163,0.331116050482,0.0193441268057,0.012291956868,-0.0757376483644,0.221184581468
1783583658663783185,1447,1783583658663783185,base_link,-0.249565780163,0.331116050482,0.0193441268057,0.012291956868,-0.0757376483644,0.221184581468
1783583658663783185,1447,1783583658663783185,base_link,-0.249565780163,0.331116050482,0.0193441268057,0.012291956868,-0.0757376483644,0.221184581468
1783583658663783185,1447,1783583658663783185,base_link,-0.249565780163,0.331116050482,0.0193441268057,0.012291956868,-0.0757376483644,0.221184581468
1783583658663783185,1447,1783583658663783185,base_link,-0.249565780163,0.331116050482,0.0193441268057,0.012291956868,-0.0757376483644,0.221184581468
1783583658663783185,1447,1783583658663783185,base_link,-0.249565780163,0.331116050482,0.0193441268057,0.012291956868,-0.0757376483644,0.221184581468
1783583658663783185,1447,1783583658663783185,base_link,-0.249565780163,0.331116050482,0.0193441268057,0.012291956868,-0.0757376483644,0.221184581468
1783583658663783185,1447,1783583658663783185,base_link,-0.249565780163,0.331116050482,0.0193441268057,0.012291956868,-0.0757376483644,0.221184581468
1783583658663783185,1447,1783583658663783185,base_link,-0.249565780163,0.331116050482,0.0193441268057,0.012291956868,-0.0757376483644,0.221184581468
1783583659163707889,1448,1783583659163707889,base_link,-0.238181740046,0.32695043087,0.025375911966,-0.0198553806806,0.0825631953492,-0.286892209197
1783583659163707889,1448,1783583659163707889,base_link,-0.238181740046,0.32695043087,0.025375911966,-0.0198553806806,0.0825631953492,-0.286892209197
1783583659163707889,1448,1783583659163707889,base_link,-0.238181740046,0.32695043087,0.025375911966,-0.0198553806806,0.0825631953492,-0.286892209197
1783583659163707889,1448,1783583659163707889,base_link,-0.238181740046,0.32695043087,0.025375911966,-0.0198553806806,0.0825631953492,-0.286892209197
1783583659163707889,1448,1783583659163707889,base_link,-0.238181740046,0.32695043087,0.025375911966,-0.0198553806806,0.0825631953492,-0.286892209197
1783583659163707889,1448,1783583659163707889,base_link,-0.238181740046,0.32695043087,0.025375911966,-0.0198553806806,0.0825631953492,-0.286892209197
1783583659163707889,1448,1783583659163707889,base_link,-0.238181740046,0.32695043087,0.025375911966,-0.0198553806806,0.0825631953492,-0.286892209197
1783583659163707889,1448,1783583659163707889,base_link,-0.238181740046,0.32695043087,0.025375911966,-0.0198553806806,0.0825631953492,-0.286892209197
1783583659163707889,1448,1783583659163707889,base_link,-0.238181740046,0.32695043087,0.025375911966,-0.0198553806806,0.0825631953492,-0.286892209197
1783583659163707889,1448,1783583659163707889,base_link,-0.238181740046,0.32695043087,0.025375911966,-0.0198553806806,0.0825631953492,-0.286892209197
1783583659663721025,1449,1783583659663721025,base_link,-0.168153464794,0.378413140774,0.0338735207915,-0.013927965387,0.0757707735081,-0.268233505527
1783583659663721025,1449,1783583659663721025,base_link,-0.168153464794,0.378413140774,0.0338735207915,-0.013927965387,0.0757707735081,-0.268233505527
1783583659663721025,1449,1783583659663721025,base_link,-0.168153464794,0.378413140774,0.0338735207915,-0.013927965387,0.0757707735081,-0.268233505527
1783583659663721025,1449,1783583659663721025,base_link,-0.168153464794,0.378413140774,0.0338735207915,-0.013927965387,0.0757707735081,-0.268233505527
1783583659663721025,1449,1783583659663721025,base_link,-0.168153464794,0.378413140774,0.0338735207915,-0.013927965387,0.0757707735081,-0.268233505527
1783583659663721025,1449,1783583659663721025,base_link,-0.168153464794,0.378413140774,0.0338735207915,-0.013927965387,0.0757707735081,-0.268233505527
1783583659663721025,1449,1783583659663721025,base_link,-0.168153464794,0.378413140774,0.0338735207915,-0.013927965387,0.0757707735081,-0.268233505527
1783583659663721025,1449,1783583659663721025,base_link,-0.168153464794,0.378413140774,0.0338735207915,-0.013927965387,0.0757707735081,-0.268233505527
1783583659663721025,1449,1783583659663721025,base_link,-0.168153464794,0.378413140774,0.0338735207915,-0.013927965387,0.0757707735081,-0.268233505527
1783583659663721025,1449,1783583659663721025,base_link,-0.168153464794,0.378413140774,0.0338735207915,-0.013927965387,0.0757707735081,-0.268233505527
1783583660163714629,1450,1783583660163714629,base_link,-0.155516937375,0.361505836248,0.0417278148234,0.0253142100664,-0.0947444477623,0.29489545211
1783583660163714629,1450,1783583660163714629,base_link,-0.155516937375,0.361505836248,0.0417278148234,0.0253142100664,-0.0947444477623,0.29489545211
1783583660163714629,1450,1783583660163714629,base_link,-0.155516937375,0.361505836248,0.0417278148234,0.0253142100664,-0.0947444477623,0.29489545211
1783583660163714629,1450,1783583660163714629,base_link,-0.155516937375,0.361505836248,0.0417278148234,0.0253142100664,-0.0947444477623,0.29489545211
1783583660163714629,1450,1783583660163714629,base_link,-0.155516937375,0.361505836248,0.0417278148234,0.0253142100664,-0.0947444477623,0.29489545211
1783583660163714629,1450,1783583660163714629,base_link,-0.155516937375,0.361505836248,0.0417278148234,0.0253142100664,-0.0947444477623,0.29489545211
1783583660163714629,1450,1783583660163714629,base_link,-0.155516937375,0.361505836248,0.0417278148234,0.0253142100664,-0.0947444477623,0.29489545211
1783583660163714629,1450,1783583660163714629,base_link,-0.155516937375,0.361505836248,0.0417278148234,0.0253142100664,-0.0947444477623,0.29489545211
1783583660163714629,1450,1783583660163714629,base_link,-0.155516937375,0.361505836248,0.0417278148234,0.0253142100664,-0.0947444477623,0.29489545211
1783583660163714629,1450,1783583660163714629,base_link,-0.155516937375,0.361505836248,0.0417278148234,0.0253142100664,-0.0947444477623,0.29489545211
1783583660663691795,1451,1783583660663691795,base_link,-0.227288261056,0.345690369606,0.0454452969134,0.0112194393848,-0.0846814072267,0.232081759567
1783583660663691795,1451,1783583660663691795,base_link,-0.227288261056,0.345690369606,0.0454452969134,0.0112194393848,-0.0846814072267,0.232081759567
1783583660663691795,1451,1783583660663691795,base_link,-0.227288261056,0.345690369606,0.0454452969134,0.0112194393848,-0.0846814072267,0.232081759567
1783583660663691795,1451,1783583660663691795,base_link,-0.227288261056,0.345690369606,0.0454452969134,0.0112194393848,-0.0846814072267,0.232081759567
1783583660663691795,1451,1783583660663691795,base_link,-0.227288261056,0.345690369606,0.0454452969134,0.0112194393848,-0.0846814072267,0.232081759567
1783583660663691795,1451,1783583660663691795,base_link,-0.227288261056,0.345690369606,0.0454452969134,0.0112194393848,-0.0846814072267,0.232081759567
1783583660663691795,1451,1783583660663691795,base_link,-0.227288261056,0.345690369606,0.0454452969134,0.0112194393848,-0.0846814072267,0.232081759567
1783583660663691795,1451,1783583660663691795,base_link,-0.227288261056,0.345690369606,0.0454452969134,0.0112194393848,-0.0846814072267,0.232081759567
1783583660663691795,1451,1783583660663691795,base_link,-0.227288261056,0.345690369606,0.0454452969134,0.0112194393848,-0.0846814072267,0.232081759567
1783583660663691795,1451,1783583660663691795,base_link,-0.227288261056,0.345690369606,0.0454452969134,0.0112194393848,-0.0846814072267,0.232081759567
1783583661163357880,1452,1783583661163357880,base_link,-0.20438170433,0.34303176403,0.0385077409446,-0.0238394889487,0.0948556525563,-0.338898921012
1783583661163357880,1452,1783583661163357880,base_link,-0.20438170433,0.34303176403,0.0385077409446,-0.0238394889487,0.0948556525563,-0.338898921012
1783583661163357880,1452,1783583661163357880,base_link,-0.20438170433,0.34303176403,0.0385077409446,-0.0238394889487,0.0948556525563,-0.338898921012
1783583661163357880,1452,1783583661163357880,base_link,-0.20438170433,0.34303176403,0.0385077409446,-0.0238394889487,0.0948556525563,-0.338898921012
1783583661163357880,1452,1783583661163357880,base_link,-0.20438170433,0.34303176403,0.0385077409446,-0.0238394889487,0.0948556525563,-0.338898921012
1783583661163357880,1452,1783583661163357880,base_link,-0.20438170433,0.34303176403,0.0385077409446,-0.0238394889487,0.0948556525563,-0.338898921012
1783583661163357880,1452,1783583661163357880,base_link,-0.20438170433,0.34303176403,0.0385077409446,-0.0238394889487,0.0948556525563,-0.338898921012
1783583661163357880,1452,1783583661163357880,base_link,-0.20438170433,0.34303176403,0.0385077409446,-0.0238394889487,0.0948556525563,-0.338898921012
1783583661163357880,1452,1783583661163357880,base_link,-0.20438170433,0.34303176403,0.0385077409446,-0.0238394889487,0.0948556525563,-0.338898921012
1783583661163357880,1452,1783583661163357880,base_link,-0.20438170433,0.34303176403,0.0385077409446,-0.0238394889487,0.0948556525563,-0.338898921012
1783583661663461605,1453,1783583661663461605,base_link,-0.125459209085,0.398987293243,0.0320923887193,-0.0143629366752,0.098048998356,-0.340225686238
1783583661663461605,1453,1783583661663461605,base_link,-0.125459209085,0.398987293243,0.0320923887193,-0.0143629366752,0.098048998356,-0.340225686238
1783583661663461605,1453,1783583661663461605,base_link,-0.125459209085,0.398987293243,0.0320923887193,-0.0143629366752,0.098048998356,-0.340225686238
1783583661663461605,1453,1783583661663461605,base_link,-0.125459209085,0.398987293243,0.0320923887193,-0.0143629366752,0.098048998356,-0.340225686238
1783583661663461605,1453,1783583661663461605,base_link,-0.125459209085,0.398987293243,0.0320923887193,-0.0143629366752,0.098048998356,-0.340225686238
1783583661663461605,1453,1783583661663461605,base_link,-0.125459209085,0.398987293243,0.0320923887193,-0.0143629366752,0.098048998356,-0.340225686238
1783583661663461605,1453,1783583661663461605,base_link,-0.125459209085,0.398987293243,0.0320923887193,-0.0143629366752,0.098048998356,-0.340225686238
1783583661663461605,1453,1783583661663461605,base_link,-0.125459209085,0.398987293243,0.0320923887193,-0.0143629366752,0.098048998356,-0.340225686238
1783583661663461605,1453,1783583661663461605,base_link,-0.125459209085,0.398987293243,0.0320923887193,-0.0143629366752,0.098048998356,-0.340225686238
1783583661663461605,1453,1783583661663461605,base_link,-0.125459209085,0.398987293243,0.0320923887193,-0.0143629366752,0.098048998356,-0.340225686238
1783583662163639440,1454,1783583662163639440,base_link,-0.0979734063148,0.374330073595,0.00845252908766,0.0215516304323,-0.0837371971214,0.228233051037
1783583662163639440,1454,1783583662163639440,base_link,-0.0979734063148,0.374330073595,0.00845252908766,0.0215516304323,-0.0837371971214,0.228233051037
1783583662163639440,1454,1783583662163639440,base_link,-0.0979734063148,0.374330073595,0.00845252908766,0.0215516304323,-0.0837371971214,0.228233051037
1783583662163639440,1454,1783583662163639440,base_link,-0.0979734063148,0.374330073595,0.00845252908766,0.0215516304323,-0.0837371971214,0.228233051037
1783583662163639440,1454,1783583662163639440,base_link,-0.0979734063148,0.374330073595,0.00845252908766,0.0215516304323,-0.0837371971214,0.228233051037
1783583662163639440,1454,1783583662163639440,base_link,-0.0979734063148,0.374330073595,0.00845252908766,0.0215516304323,-0.0837371971214,0.228233051037
1783583662163639440,1454,1783583662163639440,base_link,-0.0979734063148,0.374330073595,0.00845252908766,0.0215516304323,-0.0837371971214,0.228233051037
1783583662163639440,1454,1783583662163639440,base_link,-0.0979734063148,0.374330073595,0.00845252908766,0.0215516304323,-0.0837371971214,0.228233051037
1783583662163639440,1454,1783583662163639440,base_link,-0.0979734063148,0.374330073595,0.00845252908766,0.0215516304323,-0.0837371971214,0.228233051037
1783583662163639440,1454,1783583662163639440,base_link,-0.0979734063148,0.374330073595,0.00845252908766,0.0215516304323,-0.0837371971214,0.228233051037
1783583662663729886,1455,1783583662663729886,base_link,-0.16813094914,0.38436371088,0.00545884622261,0.0139127957403,-0.151374112314,0.429123066063
1783583662663729886,1455,1783583662663729886,base_link,-0.16813094914,0.38436371088,0.00545884622261,0.0139127957403,-0.151374112314,0.429123066063
1783583662663729886,1455,1783583662663729886,base_link,-0.16813094914,0.38436371088,0.00545884622261,0.0139127957403,-0.151374112314,0.429123066063
1783583662663729886,1455,1783583662663729886,base_link,-0.16813094914,0.38436371088,0.00545884622261,0.0139127957403,-0.151374112314,0.429123066063
1783583662663729886,1455,1783583662663729886,base_link,-0.16813094914,0.38436371088,0.00545884622261,0.0139127957403,-0.151374112314,0.429123066063
1783583662663729886,1455,1783583662663729886,base_link,-0.16813094914,0.38436371088,0.00545884622261,0.0139127957403,-0.151374112314,0.429123066063
1783583662663729886,1455,1783583662663729886,base_link,-0.16813094914,0.38436371088,0.00545884622261,0.0139127957403,-0.151374112314,0.429123066063
1783583662663729886,1455,1783583662663729886,base_link,-0.16813094914,0.38436371088,0.00545884622261,0.0139127957403,-0.151374112314,0.429123066063
1783583662663729886,1455,1783583662663729886,base_link,-0.16813094914,0.38436371088,0.00545884622261,0.0139127957403,-0.151374112314,0.429123066063
1783583662663729886,1455,1783583662663729886,base_link,-0.16813094914,0.38436371088,0.00545884622261,0.0139127957403,-0.151374112314,0.429123066063
1783583663163546786,1456,1783583663163546786,base_link,-0.177618801594,0.362844914198,-0.00564101105556,-0.0165887730613,0.0859599233986,-0.29506294216
1783583663163546786,1456,1783583663163546786,base_link,-0.177618801594,0.362844914198,-0.00564101105556,-0.0165887730613,0.0859599233986,-0.29506294216
1783583663163546786,1456,1783583663163546786,base_link,-0.177618801594,0.362844914198,-0.00564101105556,-0.0165887730613,0.0859599233986,-0.29506294216
1783583663163546786,1456,1783583663163546786,base_link,-0.177618801594,0.362844914198,-0.00564101105556,-0.0165887730613,0.0859599233986,-0.29506294216
1783583663163546786,1456,1783583663163546786,base_link,-0.177618801594,0.362844914198,-0.00564101105556,-0.0165887730613,0.0859599233986,-0.29506294216
1783583663163546786,1456,1783583663163546786,base_link,-0.177618801594,0.362844914198,-0.00564101105556,-0.0165887730613,0.0859599233986,-0.29506294216
1783583663163546786,1456,1783583663163546786,base_link,-0.177618801594,0.362844914198,-0.00564101105556,-0.0165887730613,0.0859599233986,-0.29506294216
1783583663163546786,1456,1783583663163546786,base_link,-0.177618801594,0.362844914198,-0.00564101105556,-0.0165887730613,0.0859599233986,-0.29506294216
1783583663163546786,1456,1783583663163546786,base_link,-0.177618801594,0.362844914198,-0.00564101105556,-0.0165887730613,0.0859599233986,-0.29506294216
1783583663163546786,1456,1783583663163546786,base_link,-0.177618801594,0.362844914198,-0.00564101105556,-0.0165887730613,0.0859599233986,-0.29506294216
1783583663663822597,1457,1783583663663822597,base_link,-0.0801210179925,0.444211781025,-0.00334925903007,-0.0242153809239,0.142604706507,-0.442283360249
1783583663663822597,1457,1783583663663822597,base_link,-0.0801210179925,0.444211781025,-0.00334925903007,-0.0242153809239,0.142604706507,-0.442283360249
1783583663663822597,1457,1783583663663822597,base_link,-0.0801210179925,0.444211781025,-0.00334925903007,-0.0242153809239,0.142604706507,-0.442283360249
1783583663663822597,1457,1783583663663822597,base_link,-0.0801210179925,0.444211781025,-0.00334925903007,-0.0242153809239,0.142604706507,-0.442283360249
1783583663663822597,1457,1783583663663822597,base_link,-0.0801210179925,0.444211781025,-0.00334925903007,-0.0242153809239,0.142604706507,-0.442283360249
1783583663663822597,1457,1783583663663822597,base_link,-0.0801210179925,0.444211781025,-0.00334925903007,-0.0242153809239,0.142604706507,-0.442283360249
1783583663663822597,1457,1783583663663822597,base_link,-0.0801210179925,0.444211781025,-0.00334925903007,-0.0242153809239,0.142604706507,-0.442283360249
1783583663663822597,1457,1783583663663822597,base_link,-0.0801210179925,0.444211781025,-0.00334925903007,-0.0242153809239,0.142604706507,-0.442283360249
1783583663663822597,1457,1783583663663822597,base_link,-0.0801210179925,0.444211781025,-0.00334925903007,-0.0242153809239,0.142604706507,-0.442283360249
1783583663663822597,1457,1783583663663822597,base_link,-0.0801210179925,0.444211781025,-0.00334925903007,-0.0242153809239,0.142604706507,-0.442283360249
1783583664163725735,1458,1783583664163725735,base_link,-0.0628773719072,0.416923224926,-0.00957022886723,0.0184398571808,-0.0590387264511,0.221056532823
1783583664163725735,1458,1783583664163725735,base_link,-0.0628773719072,0.416923224926,-0.00957022886723,0.0184398571808,-0.0590387264511,0.221056532823
1783583664163725735,1458,1783583664163725735,base_link,-0.0628773719072,0.416923224926,-0.00957022886723,0.0184398571808,-0.0590387264511,0.221056532823
1783583664163725735,1458,1783583664163725735,base_link,-0.0628773719072,0.416923224926,-0.00957022886723,0.0184398571808,-0.0590387264511,0.221056532823
1783583664163725735,1458,1783583664163725735,base_link,-0.0628773719072,0.416923224926,-0.00957022886723,0.0184398571808,-0.0590387264511,0.221056532823
1783583664163725735,1458,1783583664163725735,base_link,-0.0628773719072,0.416923224926,-0.00957022886723,0.0184398571808,-0.0590387264511,0.221056532823
1783583664163725735,1458,1783583664163725735,base_link,-0.0628773719072,0.416923224926,-0.00957022886723,0.0184398571808,-0.0590387264511,0.221056532823
1783583664163725735,1458,1783583664163725735,base_link,-0.0628773719072,0.416923224926,-0.00957022886723,0.0184398571808,-0.0590387264511,0.221056532823
1783583664163725735,1458,1783583664163725735,base_link,-0.0628773719072,0.416923224926,-0.00957022886723,0.0184398571808,-0.0590387264511,0.221056532823
1783583664163725735,1458,1783583664163725735,base_link,-0.0628773719072,0.416923224926,-0.00957022886723,0.0184398571808,-0.0590387264511,0.221056532823
1783583664663765131,1459,1783583664663765131,base_link,-0.139664053917,0.422943979502,2.79238338408e-05,0.00891233132906,-0.160957890909,0.430889178333
1783583664663765131,1459,1783583664663765131,base_link,-0.139664053917,0.422943979502,2.79238338408e-05,0.00891233132906,-0.160957890909,0.430889178333
1783583664663765131,1459,1783583664663765131,base_link,-0.139664053917,0.422943979502,2.79238338408e-05,0.00891233132906,-0.160957890909,0.430889178333
1783583664663765131,1459,1783583664663765131,base_link,-0.139664053917,0.422943979502,2.79238338408e-05,0.00891233132906,-0.160957890909,0.430889178333
1783583664663765131,1459,1783583664663765131,base_link,-0.139664053917,0.422943979502,2.79238338408e-05,0.00891233132906,-0.160957890909,0.430889178333
1783583664663765131,1459,1783583664663765131,base_link,-0.139664053917,0.422943979502,2.79238338408e-05,0.00891233132906,-0.160957890909,0.430889178333
1783583664663765131,1459,1783583664663765131,base_link,-0.139664053917,0.422943979502,2.79238338408e-05,0.00891233132906,-0.160957890909,0.430889178333
1783583664663765131,1459,1783583664663765131,base_link,-0.139664053917,0.422943979502,2.79238338408e-05,0.00891233132906,-0.160957890909,0.430889178333
1783583664663765131,1459,1783583664663765131,base_link,-0.139664053917,0.422943979502,2.79238338408e-05,0.00891233132906,-0.160957890909,0.430889178333
1783583664663765131,1459,1783583664663765131,base_link,-0.139664053917,0.422943979502,2.79238338408e-05,0.00891233132906,-0.160957890909,0.430889178333
1783583665163665402,1460,1783583665163665402,base_link,-0.165476128459,0.404781222343,0.00013259726984,-0.0111605455403,0.0818387686331,-0.2913817144
1783583665163665402,1460,1783583665163665402,base_link,-0.165476128459,0.404781222343,0.00013259726984,-0.0111605455403,0.0818387686331,-0.2913817144
1783583665163665402,1460,1783583665163665402,base_link,-0.165476128459,0.404781222343,0.00013259726984,-0.0111605455403,0.0818387686331,-0.2913817144
1783583665163665402,1460,1783583665163665402,base_link,-0.165476128459,0.404781222343,0.00013259726984,-0.0111605455403,0.0818387686331,-0.2913817144
1783583665163665402,1460,1783583665163665402,base_link,-0.165476128459,0.404781222343,0.00013259726984,-0.0111605455403,0.0818387686331,-0.2913817144
1783583665163665402,1460,1783583665163665402,base_link,-0.165476128459,0.404781222343,0.00013259726984,-0.0111605455403,0.0818387686331,-0.2913817144
1783583665163665402,1460,1783583665163665402,base_link,-0.165476128459,0.404781222343,0.00013259726984,-0.0111605455403,0.0818387686331,-0.2913817144
1783583665163665402,1460,1783583665163665402,base_link,-0.165476128459,0.404781222343,0.00013259726984,-0.0111605455403,0.0818387686331,-0.2913817144
1783583665163665402,1460,1783583665163665402,base_link,-0.165476128459,0.404781222343,0.00013259726984,-0.0111605455403,0.0818387686331,-0.2913817144
1783583665163665402,1460,1783583665163665402,base_link,-0.165476128459,0.404781222343,0.00013259726984,-0.0111605455403,0.0818387686331,-0.2913817144
1783583665664260515,1461,1783583665664260515,base_link,-0.0670200884342,0.484041571617,0.0057367272675,-0.0146106288945,0.155374579789,-0.473228645136
1783583665664260515,1461,1783583665664260515,base_link,-0.0670200884342,0.484041571617,0.0057367272675,-0.0146106288945,0.155374579789,-0.473228645136
1783583665664260515,1461,1783583665664260515,base_link,-0.0670200884342,0.484041571617,0.0057367272675,-0.0146106288945,0.155374579789,-0.473228645136
1783583665664260515,1461,1783583665664260515,base_link,-0.0670200884342,0.484041571617,0.0057367272675,-0.0146106288945,0.155374579789,-0.473228645136
1783583665664260515,1461,1783583665664260515,base_link,-0.0670200884342,0.484041571617,0.0057367272675,-0.0146106288945,0.155374579789,-0.473228645136
1783583665664260515,1461,1783583665664260515,base_link,-0.0670200884342,0.484041571617,0.0057367272675,-0.0146106288945,0.155374579789,-0.473228645136
