%time,field.header.seq,field.header.stamp,field.header.frame_id,field.twist.linear.x,field.twist.linear.y,field.twist.linear.z,field.twist.angular.x,field.twist.angular.y,field.twist.angular.z
1783583859668215843,1849,1783583859668215843,base_link,-0.31655523181,-0.128365725279,0.0179225169122,-0.00256808193685,0.000254751224927,-0.037409333711
1783583859668215843,1849,1783583859668215843,base_link,-0.31655523181,-0.128365725279,0.0179225169122,-0.00256808193685,0.000254751224927,-0.037409333711
1783583859668215843,1849,1783583859668215843,base_link,-0.31655523181,-0.128365725279,0.0179225169122,-0.00256808193685,0.000254751224927,-0.037409333711
1783583859668215843,1849,1783583859668215843,base_link,-0.31655523181,-0.128365725279,0.0179225169122,-0.00256808193685,0.000254751224927,-0.037409333711
1783583859668215843,1849,1783583859668215843,base_link,-0.31655523181,-0.128365725279,0.0179225169122,-0.00256808193685,0.000254751224927,-0.037409333711
1783583859668215843,1849,1783583859668215843,base_link,-0.31655523181,-0.128365725279,0.0179225169122,-0.00256808193685,0.000254751224927,-0.037409333711
1783583859668215843,1849,1783583859668215843,base_link,-0.31655523181,-0.128365725279,0.0179225169122,-0.00256808193685,0.000254751224927,-0.037409333711
1783583859668215843,1849,1783583859668215843,base_link,-0.31655523181,-0.128365725279,0.0179225169122,-0.00256808193685,0.000254751224927,-0.037409333711
1783583859668215843,1849,1783583859668215843,base_link,-0.31655523181,-0.128365725279,0.0179225169122,-0.00256808193685,0.000254751224927,-0.037409333711
1783583859668215843,1849,1783583859668215843,base_link,-0.31655523181,-0.128365725279,0.0179225169122,-0.00256808193685,0.000254751224927,-0.037409333711
1783583860168371516,1850,1783583860168371516,base_link,-0.291779190302,-0.108165919781,0.00869435817003,0.00636161866546,0.00400606451195,-0.0380250110228
1783583860168371516,1850,1783583860168371516,base_link,-0.291779190302,-0.108165919781,0.00869435817003,0.00636161866546,0.00400606451195,-0.0380250110228
1783583860168371516,1850,1783583860168371516,base_link,-0.291779190302,-0.108165919781,0.00869435817003,0.00636161866546,0.00400606451195,-0.0380250110228
1783583860168371516,1850,1783583860168371516,base_link,-0.291779190302,-0.108165919781,0.00869435817003,0.00636161866546,0.00400606451195,-0.0380250110228
1783583860168371516,1850,1783583860168371516,base_link,-0.291779190302,-0.108165919781,0.00869435817003,0.00636161866546,0.00400606451195,-0.0380250110228
1783583860168371516,1850,1783583860168371516,base_link,-0.291779190302,-0.108165919781,0.00869435817003,0.00636161866546,0.00400606451195,-0.0380250110228
1783583860168371516,1850,1783583860168371516,base_link,-0.291779190302,-0.108165919781,0.00869435817003,0.00636161866546,0.00400606451195,-0.0380250110228
1783583860168371516,1850,1783583860168371516,base_link,-0.291779190302,-0.108165919781,0.00869435817003,0.00636161866546,0.00400606451195,-0.0380250110228
1783583860168371516,1850,1783583860168371516,base_link,-0.291779190302,-0.108165919781,0.00869435817003,0.00636161866546,0.00400606451195,-0.0380250110228
1783583860168371516,1850,1783583860168371516,base_link,-0.291779190302,-0.108165919781,0.00869435817003,0.00636161866546,0.00400606451195,-0.0380250110228
1783583860668292054,1851,1783583860668292054,base_link,-0.272509664297,-0.0860619992018,-0.000798029184807,-0.00511291295792,-0.00687599118842,-0.0281478708103
1783583860668292054,1851,1783583860668292054,base_link,-0.272509664297,-0.0860619992018,-0.000798029184807,-0.00511291295792,-0.00687599118842,-0.0281478708103
1783583860668292054,1851,1783583860668292054,base_link,-0.272509664297,-0.0860619992018,-0.000798029184807,-0.00511291295792,-0.00687599118842,-0.0281478708103
1783583860668292054,1851,1783583860668292054,base_link,-0.272509664297,-0.0860619992018,-0.000798029184807,-0.00511291295792,-0.00687599118842,-0.0281478708103
1783583860668292054,1851,1783583860668292054,base_link,-0.272509664297,-0.0860619992018,-0.000798029184807,-0.00511291295792,-0.00687599118842,-0.0281478708103
1783583860668292054,1851,1783583860668292054,base_link,-0.272509664297,-0.0860619992018,-0.000798029184807,-0.00511291295792,-0.00687599118842,-0.0281478708103
1783583860668292054,1851,1783583860668292054,base_link,-0.272509664297,-0.0860619992018,-0.000798029184807,-0.00511291295792,-0.00687599118842,-0.0281478708103
1783583860668292054,1851,1783583860668292054,base_link,-0.272509664297,-0.0860619992018,-0.000798029184807,-0.00511291295792,-0.00687599118842,-0.0281478708103
1783583860668292054,1851,1783583860668292054,base_link,-0.272509664297,-0.0860619992018,-0.000798029184807,-0.00511291295792,-0.00687599118842,-0.0281478708103
1783583860668292054,1851,1783583860668292054,base_link,-0.272509664297,-0.0860619992018,-0.000798029184807,-0.00511291295792,-0.00687599118842,-0.0281478708103
1783583861168256504,1852,1783583861168256504,base_link,-0.256419599056,-0.0680125355721,-0.00895208306611,0.00410901900948,0.00214756464219,-0.0289470343019
1783583861168256504,1852,1783583861168256504,base_link,-0.256419599056,-0.0680125355721,-0.00895208306611,0.00410901900948,0.00214756464219,-0.0289470343019
1783583861168256504,1852,1783583861168256504,base_link,-0.256419599056,-0.0680125355721,-0.00895208306611,0.00410901900948,0.00214756464219,-0.0289470343019
1783583861168256504,1852,1783583861168256504,base_link,-0.256419599056,-0.0680125355721,-0.00895208306611,0.00410901900948,0.00214756464219,-0.0289470343019
1783583861168256504,1852,1783583861168256504,base_link,-0.256419599056,-0.0680125355721,-0.00895208306611,0.00410901900948,0.00214756464219,-0.0289470343019
1783583861168256504,1852,1783583861168256504,base_link,-0.256419599056,-0.0680125355721,-0.00895208306611,0.00410901900948,0.00214756464219,-0.0289470343019
1783583861168256504,1852,1783583861168256504,base_link,-0.256419599056,-0.0680125355721,-0.00895208306611,0.00410901900948,0.00214756464219,-0.0289470343019
1783583861168256504,1852,1783583861168256504,base_link,-0.256419599056,-0.0680125355721,-0.00895208306611,0.00410901900948,0.00214756464219,-0.0289470343019
1783583861168256504,1852,1783583861168256504,base_link,-0.256419599056,-0.0680125355721,-0.00895208306611,0.00410901900948,0.00214756464219,-0.0289470343019
1783583861168256504,1852,1783583861168256504,base_link,-0.256419599056,-0.0680125355721,-0.00895208306611,0.00410901900948,0.00214756464219,-0.0289470343019
1783583861668435069,1853,1783583861668435069,base_link,-0.266402453184,-0.0628449097276,-0.0266705751419,0.0441857790439,-0.0159251883545,0.299666741295
1783583861668435069,1853,1783583861668435069,base_link,-0.266402453184,-0.0628449097276,-0.0266705751419,0.0441857790439,-0.0159251883545,0.299666741295
1783583861668435069,1853,1783583861668435069,base_link,-0.266402453184,-0.0628449097276,-0.0266705751419,0.0441857790439,-0.0159251883545,0.299666741295
1783583861668435069,1853,1783583861668435069,base_link,-0.266402453184,-0.0628449097276,-0.0266705751419,0.0441857790439,-0.0159251883545,0.299666741295
1783583861668435069,1853,1783583861668435069,base_link,-0.266402453184,-0.0628449097276,-0.0266705751419,0.0441857790439,-0.0159251883545,0.299666741295
1783583861668435069,1853,1783583861668435069,base_link,-0.266402453184,-0.0628449097276,-0.0266705751419,0.0441857790439,-0.0159251883545,0.299666741295
1783583861668435069,1853,1783583861668435069,base_link,-0.266402453184,-0.0628449097276,-0.0266705751419,0.0441857790439,-0.0159251883545,0.299666741295
1783583861668435069,1853,1783583861668435069,base_link,-0.266402453184,-0.0628449097276,-0.0266705751419,0.0441857790439,-0.0159251883545,0.299666741295
1783583861668435069,1853,1783583861668435069,base_link,-0.266402453184,-0.0628449097276,-0.0266705751419,0.0441857790439,-0.0159251883545,0.299666741295
1783583861668435069,1853,1783583861668435069,base_link,-0.266402453184,-0.0628449097276,-0.0266705751419,0.0441857790439,-0.0159251883545,0.299666741295
1783583862168274151,1854,1783583862168274151,base_link,-0.28577029705,-0.111978545785,-0.033138550818,-0.0217528665336,-0.00280165065585,-0.0235067991127
1783583862168274151,1854,1783583862168274151,base_link,-0.28577029705,-0.111978545785,-0.033138550818,-0.0217528665336,-0.00280165065585,-0.0235067991127
1783583862168274151,1854,1783583862168274151,base_link,-0.28577029705,-0.111978545785,-0.033138550818,-0.0217528665336,-0.00280165065585,-0.0235067991127
1783583862168274151,1854,1783583862168274151,base_link,-0.28577029705,-0.111978545785,-0.033138550818,-0.0217528665336,-0.00280165065585,-0.0235067991127
1783583862168274151,1854,1783583862168274151,base_link,-0.28577029705,-0.111978545785,-0.033138550818,-0.0217528665336,-0.00280165065585,-0.0235067991127
1783583862168274151,1854,1783583862168274151,base_link,-0.28577029705,-0.111978545785,-0.033138550818,-0.0217528665336,-0.00280165065585,-0.0235067991127
1783583862168274151,1854,1783583862168274151,base_link,-0.28577029705,-0.111978545785,-0.033138550818,-0.0217528665336,-0.00280165065585,-0.0235067991127
1783583862168274151,1854,1783583862168274151,base_link,-0.28577029705,-0.111978545785,-0.033138550818,-0.0217528665336,-0.00280165065585,-0.0235067991127
1783583862168274151,1854,1783583862168274151,base_link,-0.28577029705,-0.111978545785,-0.033138550818,-0.0217528665336,-0.00280165065585,-0.0235067991127
1783583862168274151,1854,1783583862168274151,base_link,-0.28577029705,-0.111978545785,-0.033138550818,-0.0217528665336,-0.00280165065585,-0.0235067991127
1783583862668466710,1855,1783583862668466710,base_link,-0.346563965082,-0.0810380131006,-0.0292851887643,-0.0919432410275,0.0221660732961,-0.303562359859
1783583862668466710,1855,1783583862668466710,base_link,-0.346563965082,-0.0810380131006,-0.0292851887643,-0.0919432410275,0.0221660732961,-0.303562359859
1783583862668466710,1855,1783583862668466710,base_link,-0.346563965082,-0.0810380131006,-0.0292851887643,-0.0919432410275,0.0221660732961,-0.303562359859
1783583862668466710,1855,1783583862668466710,base_link,-0.346563965082,-0.0810380131006,-0.0292851887643,-0.0919432410275,0.0221660732961,-0.303562359859
1783583862668466710,1855,1783583862668466710,base_link,-0.346563965082,-0.0810380131006,-0.0292851887643,-0.0919432410275,0.0221660732961,-0.303562359859
1783583862668466710,1855,1783583862668466710,base_link,-0.346563965082,-0.0810380131006,-0.0292851887643,-0.0919432410275,0.0221660732961,-0.303562359859
1783583862668466710,1855,1783583862668466710,base_link,-0.346563965082,-0.0810380131006,-0.0292851887643,-0.0919432410275,0.0221660732961,-0.303562359859
1783583862668466710,1855,1783583862668466710,base_link,-0.346563965082,-0.0810380131006,-0.0292851887643,-0.0919432410275,0.0221660732961,-0.303562359859
1783583862668466710,1855,1783583862668466710,base_link,-0.346563965082,-0.0810380131006,-0.0292851887643,-0.0919432410275,0.0221660732961,-0.303562359859
1783583862668466710,1855,1783583862668466710,base_link,-0.346563965082,-0.0810380131006,-0.0292851887643,-0.0919432410275,0.0221660732961,-0.303562359859
1783583863168227066,1856,1783583863168227066,base_link,-0.388859063387,-0.0582943819463,-0.0216753575951,-0.0120872511425,0.00396082656122,-0.0676413316328
1783583863168227066,1856,1783583863168227066,base_link,-0.388859063387,-0.0582943819463,-0.0216753575951,-0.0120872511425,0.00396082656122,-0.0676413316328
1783583863168227066,1856,1783583863168227066,base_link,-0.388859063387,-0.0582943819463,-0.0216753575951,-0.0120872511425,0.00396082656122,-0.0676413316328
1783583863168227066,1856,1783583863168227066,base_link,-0.388859063387,-0.0582943819463,-0.0216753575951,-0.0120872511425,0.00396082656122,-0.0676413316328
1783583863168227066,1856,1783583863168227066,base_link,-0.388859063387,-0.0582943819463,-0.0216753575951,-0.0120872511425,0.00396082656122,-0.0676413316328
1783583863168227066,1856,1783583863168227066,base_link,-0.388859063387,-0.0582943819463,-0.0216753575951,-0.0120872511425,0.00396082656122,-0.0676413316328
1783583863168227066,1856,1783583863168227066,base_link,-0.388859063387,-0.0582943819463,-0.0216753575951,-0.0120872511425,0.00396082656122,-0.0676413316328
1783583863168227066,1856,1783583863168227066,base_link,-0.388859063387,-0.0582943819463,-0.0216753575951,-0.0120872511425,0.00396082656122,-0.0676413316328
1783583863168227066,1856,1783583863168227066,base_link,-0.388859063387,-0.0582943819463,-0.0216753575951,-0.0120872511425,0.00396082656122,-0.0676413316328
1783583863168227066,1856,1783583863168227066,base_link,-0.388859063387,-0.0582943819463,-0.0216753575951,-0.0120872511425,0.00396082656122,-0.0676413316328
1783583863668562073,1857,1783583863668562073,base_link,-0.397049456835,-0.101185493171,-0.0303701125085,0.128125026671,-0.0260599543212,0.428489927177
1783583863668562073,1857,1783583863668562073,base_link,-0.397049456835,-0.101185493171,-0.0303701125085,0.128125026671,-0.0260599543212,0.428489927177
1783583863668562073,1857,1783583863668562073,base_link,-0.397049456835,-0.101185493171,-0.0303701125085,0.128125026671,-0.0260599543212,0.428489927177
1783583863668562073,1857,1783583863668562073,base_link,-0.397049456835,-0.101185493171,-0.0303701125085,0.128125026671,-0.0260599543212,0.428489927177
1783583863668562073,1857,1783583863668562073,base_link,-0.397049456835,-0.101185493171,-0.0303701125085,0.128125026671,-0.0260599543212,0.428489927177
1783583863668562073,1857,1783583863668562073,base_link,-0.397049456835,-0.101185493171,-0.0303701125085,0.128125026671,-0.0260599543212,0.428489927177
1783583863668562073,1857,1783583863668562073,base_link,-0.397049456835,-0.101185493171,-0.0303701125085,0.128125026671,-0.0260599543212,0.428489927177
1783583863668562073,1857,1783583863668562073,base_link,-0.397049456835,-0.101185493171,-0.0303701125085,0.128125026671,-0.0260599543212,0.428489927177
1783583863668562073,1857,1783583863668562073,base_link,-0.397049456835,-0.101185493171,-0.0303701125085,0.128125026671,-0.0260599543212,0.428489927177
1783583863668562073,1857,1783583863668562073,base_link,-0.397049456835,-0.101185493171,-0.0303701125085,0.128125026671,-0.0260599543212,0.428489927177
1783583864168239472,1858,1783583864168239472,base_link,-0.403697192669,-0.199618458748,-0.0461342409253,0.0116567549328,-0.0132877407794,0.113874361223
1783583864168239472,1858,1783583864168239472,base_link,-0.403697192669,-0.199618458748,-0.0461342409253,0.0116567549328,-0.0132877407794,0.113874361223
1783583864168239472,1858,1783583864168239472,base_link,-0.403697192669,-0.199618458748,-0.0461342409253,0.0116567549328,-0.0132877407794,0.113874361223
1783583864168239472,1858,1783583864168239472,base_link,-0.403697192669,-0.199618458748,-0.0461342409253,0.0116567549328,-0.0132877407794,0.113874361223
1783583864168239472,1858,1783583864168239472,base_link,-0.403697192669,-0.199618458748,-0.0461342409253,0.0116567549328,-0.0132877407794,0.113874361223
1783583864168239472,1858,1783583864168239472,base_link,-0.403697192669,-0.199618458748,-0.0461342409253,0.0116567549328,-0.0132877407794,0.113874361223
1783583864168239472,1858,1783583864168239472,base_link,-0.403697192669,-0.199618458748,-0.0461342409253,0.0116567549328,-0.0132877407794,0.113874361223
1783583864168239472,1858,1783583864168239472,base_link,-0.403697192669,-0.199618458748,-0.0461342409253,0.0116567549328,-0.0132877407794,0.113874361223
1783583864168239472,1858,1783583864168239472,base_link,-0.403697192669,-0.199618458748,-0.0461342409253,0.0116567549328,-0.0132877407794,0.113874361223
1783583864168239472,1858,1783583864168239472,base_link,-0.403697192669,-0.199618458748,-0.0461342409253,0.0116567549328,-0.0132877407794,0.113874361223
1783583864668087869,1859,1783583864668087869,base_link,-0.458937942982,-0.19084367156,-0.0432135760784,-0.102160079822,0.0043521283967,-0.287555880714
1783583864668087869,1859,1783583864668087869,base_link,-0.458937942982,-0.19084367156,-0.0432135760784,-0.102160079822,0.0043521283967,-0.287555880714
1783583864668087869,1859,1783583864668087869,base_link,-0.458937942982,-0.19084367156,-0.0432135760784,-0.102160079822,0.0043521283967,-0.287555880714
1783583864668087869,1859,1783583864668087869,base_link,-0.458937942982,-0.19084367156,-0.0432135760784,-0.102160079822,0.0043521283967,-0.287555880714
1783583864668087869,1859,1783583864668087869,base_link,-0.458937942982,-0.19084367156,-0.0432135760784,-0.102160079822,0.0043521283967,-0.287555880714
1783583864668087869,1859,1783583864668087869,base_link,-0.458937942982,-0.19084367156,-0.0432135760784,-0.102160079822,0.0043521283967,-0.287555880714
1783583864668087869,1859,1783583864668087869,base_link,-0.458937942982,-0.19084367156,-0.0432135760784,-0.102160079822,0.0043521283967,-0.287555880714
1783583864668087869,1859,1783583864668087869,base_link,-0.458937942982,-0.19084367156,-0.0432135760784,-0.102160079822,0.0043521283967,-0.287555880714
1783583864668087869,1859,1783583864668087869,base_link,-0.458937942982,-0.19084367156,-0.0432135760784,-0.102160079822,0.0043521283967,-0.287555880714
1783583864668087869,1859,1783583864668087869,base_link,-0.458937942982,-0.19084367156,-0.0432135760784,-0.102160079822,0.0043521283967,-0.287555880714
1783583865168229246,1860,1783583865168229246,base_link,-0.493639826775,-0.170939698815,-0.0381304137409,-0.0270483761886,0.0107159517975,-0.0648884761488
1783583865168229246,1860,1783583865168229246,base_link,-0.493639826775,-0.170939698815,-0.0381304137409,-0.0270483761886,0.0107159517975,-0.0648884761488
1783583865168229246,1860,1783583865168229246,base_link,-0.493639826775,-0.170939698815,-0.0381304137409,-0.0270483761886,0.0107159517975,-0.0648884761488
1783583865168229246,1860,1783583865168229246,base_link,-0.493639826775,-0.170939698815,-0.0381304137409,-0.0270483761886,0.0107159517975,-0.0648884761488
1783583865168229246,1860,1783583865168229246,base_link,-0.493639826775,-0.170939698815,-0.0381304137409,-0.0270483761886,0.0107159517975,-0.0648884761488
1783583865168229246,1860,1783583865168229246,base_link,-0.493639826775,-0.170939698815,-0.0381304137409,-0.0270483761886,0.0107159517975,-0.0648884761488
1783583865168229246,1860,1783583865168229246,base_link,-0.493639826775,-0.170939698815,-0.0381304137409,-0.0270483761886,0.0107159517975,-0.0648884761488
1783583865168229246,1860,1783583865168229246,base_link,-0.493639826775,-0.170939698815,-0.0381304137409,-0.0270483761886,0.0107159517975,-0.0648884761488
1783583865168229246,1860,1783583865168229246,base_link,-0.493639826775,-0.170939698815,-0.0381304137409,-0.0270483761886,0.0107159517975,-0.0648884761488
1783583865168229246,1860,1783583865168229246,base_link,-0.493639826775,-0.170939698815,-0.0381304137409,-0.0270483761886,0.0107159517975,-0.0648884761488
1783583865668364174,1861,1783583865668364174,base_link,-0.485503822565,-0.200924664736,-0.0304331313819,0.124426733274,-0.00987197004176,0.422059243125
1783583865668364174,1861,1783583865668364174,base_link,-0.485503822565,-0.200924664736,-0.0304331313819,0.124426733274,-0.00987197004176,0.422059243125
1783583865668364174,1861,1783583865668364174,base_link,-0.485503822565,-0.200924664736,-0.0304331313819,0.124426733274,-0.00987197004176,0.422059243125
1783583865668364174,1861,1783583865668364174,base_link,-0.485503822565,-0.200924664736,-0.0304331313819,0.124426733274,-0.00987197004176,0.422059243125
1783583865668364174,1861,1783583865668364174,base_link,-0.485503822565,-0.200924664736,-0.0304331313819,0.124426733274,-0.00987197004176,0.422059243125
1783583865668364174,1861,1783583865668364174,base_link,-0.485503822565,-0.200924664736,-0.0304331313819,0.124426733274,-0.00987197004176,0.422059243125
1783583865668364174,1861,1783583865668364174,base_link,-0.485503822565,-0.200924664736,-0.0304331313819,0.124426733274,-0.00987197004176,0.422059243125
1783583865668364174,1861,1783583865668364174,base_link,-0.485503822565,-0.200924664736,-0.0304331313819,0.124426733274,-0.00987197004176,0.422059243125
1783583865668364174,1861,1783583865668364174,base_link,-0.485503822565,-0.200924664736,-0.0304331313819,0.124426733274,-0.00987197004176,0.422059243125
1783583865668364174,1861,1783583865668364174,base_link,-0.485503822565,-0.200924664736,-0.0304331313819,0.124426733274,-0.00987197004176,0.422059243125
1783583866168355952,1862,1783583866168355952,base_link,-0.470523357391,-0.296495914459,-0.0288789253682,0.0166067812565,-0.00742314479703,0.123186105605
1783583866168355952,1862,1783583866168355952,base_link,-0.470523357391,-0.296495914459,-0.0288789253682,0.0166067812565,-0.00742314479703,0.123186105605
1783583866168355952,1862,1783583866168355952,base_link,-0.470523357391,-0.296495914459,-0.0288789253682,0.0166067812565,-0.00742314479703,0.123186105605
1783583866168355952,1862,1783583866168355952,base_link,-0.470523357391,-0.296495914459,-0.0288789253682,0.0166067812565,-0.00742314479703,0.123186105605
1783583866168355952,1862,1783583866168355952,base_link,-0.470523357391,-0.296495914459,-0.0288789253682,0.0166067812565,-0.00742314479703,0.123186105605
1783583866168355952,1862,1783583866168355952,base_link,-0.470523357391,-0.296495914459,-0.0288789253682,0.0166067812565,-0.00742314479703,0.123186105605
1783583866168355952,1862,1783583866168355952,base_link,-0.470523357391,-0.296495914459,-0.0288789253682,0.0166067812565,-0.00742314479703,0.123186105605
1783583866168355952,1862,1783583866168355952,base_link,-0.470523357391,-0.296495914459,-0.0288789253682,0.0166067812565,-0.00742314479703,0.123186105605
1783583866168355952,1862,1783583866168355952,base_link,-0.470523357391,-0.296495914459,-0.0288789253682,0.0166067812565,-0.00742314479703,0.123186105605
1783583866168355952,1862,1783583866168355952,base_link,-0.470523357391,-0.296495914459,-0.0288789253682,0.0166067812565,-0.00742314479703,0.123186105605
1783583866668378612,1863,1783583866668378612,base_link,-0.504930019379,-0.287597328424,-0.00285886996426,-0.105595294956,-0.0037923760268,-0.291374621865
1783583866668378612,1863,1783583866668378612,base_link,-0.504930019379,-0.287597328424,-0.00285886996426,-0.105595294956,-0.0037923760268,-0.291374621865
1783583866668378612,1863,1783583866668378612,base_link,-0.504930019379,-0.287597328424,-0.00285886996426,-0.105595294956,-0.0037923760268,-0.291374621865
1783583866668378612,1863,1783583866668378612,base_link,-0.504930019379,-0.287597328424,-0.00285886996426,-0.105595294956,-0.0037923760268,-0.291374621865
1783583866668378612,1863,1783583866668378612,base_link,-0.504930019379,-0.287597328424,-0.00285886996426,-0.105595294956,-0.0037923760268,-0.291374621865
1783583866668378612,1863,1783583866668378612,base_link,-0.504930019379,-0.287597328424,-0.00285886996426,-0.105595294956,-0.0037923760268,-0.291374621865
1783583866668378612,1863,1783583866668378612,base_link,-0.504930019379,-0.287597328424,-0.00285886996426,-0.105595294956,-0.0037923760268,-0.291374621865
1783583866668378612,1863,1783583866668378612,base_link,-0.504930019379,-0.287597328424,-0.00285886996426,-0.105595294956,-0.0037923760268,-0.291374621865
1783583866668378612,1863,1783583866668378612,base_link,-0.504930019379,-0.287597328424,-0.00285886996426,-0.105595294956,-0.0037923760268,-0.291374621865
1783583866668378612,1863,1783583866668378612,base_link,-0.504930019379,-0.287597328424,-0.00285886996426,-0.105595294956,-0.0037923760268,-0.291374621865
1783583867168330880,1864,1783583867168330880,base_link,-0.514790892601,-0.265812605619,0.0142044248059,-0.0309353995872,0.0054608811114,-0.0701058206119
1783583867168330880,1864,1783583867168330880,base_link,-0.514790892601,-0.265812605619,0.0142044248059,-0.0309353995872,0.0054608811114,-0.0701058206119
1783583867168330880,1864,1783583867168330880,base_link,-0.514790892601,-0.265812605619,0.0142044248059,-0.0309353995872,0.0054608811114,-0.0701058206119
1783583867168330880,1864,1783583867168330880,base_link,-0.514790892601,-0.265812605619,0.0142044248059,-0.0309353995872,0.0054608811114,-0.0701058206119
1783583867168330880,1864,1783583867168330880,base_link,-0.514790892601,-0.265812605619,0.0142044248059,-0.0309353995872,0.0054608811114,-0.0701058206119
1783583867168330880,1864,1783583867168330880,base_link,-0.514790892601,-0.265812605619,0.0142044248059,-0.0309353995872,0.0054608811114,-0.0701058206119
1783583867168330880,1864,1783583867168330880,base_link,-0.514790892601,-0.265812605619,0.0142044248059,-0.0309353995872,0.0054608811114,-0.0701058206119
1783583867168330880,1864,1783583867168330880,base_link,-0.514790892601,-0.265812605619,0.0142044248059,-0.0309353995872,0.0054608811114,-0.0701058206119
1783583867168330880,1864,1783583867168330880,base_link,-0.514790892601,-0.265812605619,0.0142044248059,-0.0309353995872,0.0054608811114,-0.0701058206119
1783583867168330880,1864,1783583867168330880,base_link,-0.514790892601,-0.265812605619,0.0142044248059,-0.0309353995872,0.0054608811114,-0.0701058206119
1783583867668530015,1865,1783583867668530015,base_link,-0.480963855982,-0.292518883944,0.027811165899,0.119771100033,0.00570923001634,0.422798619161
1783583867668530015,1865,1783583867668530015,base_link,-0.480963855982,-0.292518883944,0.027811165899,0.119771100033,0.00570923001634,0.422798619161
1783583867668530015,1865,1783583867668530015,base_link,-0.480963855982,-0.292518883944,0.027811165899,0.119771100033,0.00570923001634,0.422798619161
1783583867668530015,1865,1783583867668530015,base_link,-0.480963855982,-0.292518883944,0.027811165899,0.119771100033,0.00570923001634,0.422798619161
1783583867668530015,1865,1783583867668530015,base_link,-0.480963855982,-0.292518883944,0.027811165899,0.119771100033,0.00570923001634,0.422798619161
1783583867668530015,1865,1783583867668530015,base_link,-0.480963855982,-0.292518883944,0.027811165899,0.119771100033,0.00570923001634,0.422798619161
1783583867668530015,1865,1783583867668530015,base_link,-0.480963855982,-0.292518883944,0.027811165899,0.119771100033,0.00570923001634,0.422798619161
1783583867668530015,1865,1783583867668530015,base_link,-0.480963855982,-0.292518883944,0.027811165899,0.119771100033,0.00570923001634,0.422798619161
1783583867668530015,1865,1783583867668530015,base_link,-0.480963855982,-0.292518883944,0.027811165899,0.119771100033,0.00570923001634,0.422798619161
1783583867668530015,1865,1783583867668530015,base_link,-0.480963855982,-0.292518883944,0.027811165899,0.119771100033,0.00570923001634,0.422798619161
1783583868168223533,1866,1783583868168223533,base_link,-0.442395478487,-0.374463289976,0.0167509485036,0.0150114142265,-0.00555175995902,0.130307948074
1783583868168223533,1866,1783583868168223533,base_link,-0.442395478487,-0.374463289976,0.0167509485036,0.0150114142265,-0.00555175995902,0.130307948074
1783583868168223533,1866,1783583868168223533,base_link,-0.442395478487,-0.374463289976,0.0167509485036,0.0150114142265,-0.00555175995902,0.130307948074
1783583868168223533,1866,1783583868168223533,base_link,-0.442395478487,-0.374463289976,0.0167509485036,0.0150114142265,-0.00555175995902,0.130307948074
1783583868168223533,1866,1783583868168223533,base_link,-0.442395478487,-0.374463289976,0.0167509485036,0.0150114142265,-0.00555175995902,0.130307948074
1783583868168223533,1866,1783583868168223533,base_link,-0.442395478487,-0.374463289976,0.0167509485036,0.0150114142265,-0.00555175995902,0.130307948074
1783583868168223533,1866,1783583868168223533,base_link,-0.442395478487,-0.374463289976,0.0167509485036,0.0150114142265,-0.00555175995902,0.130307948074
1783583868168223533,1866,1783583868168223533,base_link,-0.442395478487,-0.374463289976,0.0167509485036,0.0150114142265,-0.00555175995902,0.130307948074
1783583868168223533,1866,1783583868168223533,base_link,-0.442395478487,-0.374463289976,0.0167509485036,0.0150114142265,-0.00555175995902,0.130307948074
1783583868168223533,1866,1783583868168223533,base_link,-0.442395478487,-0.374463289976,0.0167509485036,0.0150114142265,-0.00555175995902,0.130307948074
1783583868668317480,1867,1783583868668317480,base_link,-0.467679232359,-0.360624819994,0.02068284899,-0.107671777894,-0.0155114984729,-0.272864017881
1783583868668317480,1867,1783583868668317480,base_link,-0.467679232359,-0.360624819994,0.02068284899,-0.107671777894,-0.0155114984729,-0.272864017881
1783583868668317480,1867,1783583868668317480,base_link,-0.467679232359,-0.360624819994,0.02068284899,-0.107671777894,-0.0155114984729,-0.272864017881
1783583868668317480,1867,1783583868668317480,base_link,-0.467679232359,-0.360624819994,0.02068284899,-0.107671777894,-0.0155114984729,-0.272864017881
1783583868668317480,1867,1783583868668317480,base_link,-0.467679232359,-0.360624819994,0.02068284899,-0.107671777894,-0.0155114984729,-0.272864017881
1783583868668317480,1867,1783583868668317480,base_link,-0.467679232359,-0.360624819994,0.02068284899,-0.107671777894,-0.0155114984729,-0.272864017881
1783583868668317480,1867,1783583868668317480,base_link,-0.467679232359,-0.360624819994,0.02068284899,-0.107671777894,-0.0155114984729,-0.272864017881
1783583868668317480,1867,1783583868668317480,base_link,-0.467679232359,-0.360624819994,0.02068284899,-0.107671777894,-0.0155114984729,-0.272864017881
1783583868668317480,1867,1783583868668317480,base_link,-0.467679232359,-0.360624819994,0.02068284899,-0.107671777894,-0.0155114984729,-0.272864017881
1783583868668317480,1867,1783583868668317480,base_link,-0.467679232359,-0.360624819994,0.02068284899,-0.107671777894,-0.0155114984729,-0.272864017881
1783583869168365647,1868,1783583869168365647,base_link,-0.477697879076,-0.329042077065,0.042616494,-0.0381138714257,0.00506783033935,-0.0562282699992
1783583869168365647,1868,1783583869168365647,base_link,-0.477697879076,-0.329042077065,0.042616494,-0.0381138714257,0.00506783033935,-0.0562282699992
1783583869168365647,1868,1783583869168365647,base_link,-0.477697879076,-0.329042077065,0.042616494,-0.0381138714257,0.00506783033935,-0.0562282699992
1783583869168365647,1868,1783583869168365647,base_link,-0.477697879076,-0.329042077065,0.042616494,-0.0381138714257,0.00506783033935,-0.0562282699992
1783583869168365647,1868,1783583869168365647,base_link,-0.477697879076,-0.329042077065,0.042616494,-0.0381138714257,0.00506783033935,-0.0562282699992
1783583869168365647,1868,1783583869168365647,base_link,-0.477697879076,-0.329042077065,0.042616494,-0.0381138714257,0.00506783033935,-0.0562282699992
1783583869168365647,1868,1783583869168365647,base_link,-0.477697879076,-0.329042077065,0.042616494,-0.0381138714257,0.00506783033935,-0.0562282699992
1783583869168365647,1868,1783583869168365647,base_link,-0.477697879076,-0.329042077065,0.042616494,-0.0381138714257,0.00506783033935,-0.0562282699992
1783583869168365647,1868,1783583869168365647,base_link,-0.477697879076,-0.329042077065,0.042616494,-0.0381138714257,0.00506783033935,-0.0562282699992
1783583869168365647,1868,1783583869168365647,base_link,-0.477697879076,-0.329042077065,0.042616494,-0.0381138714257,0.00506783033935,-0.0562282699992
1783583869669058588,1869,1783583869669058588,base_link,-0.436352729797,-0.342388242483,0.0441165789962,0.125824498356,0.0150171317695,0.437181739409
1783583869669058588,1869,1783583869669058588,base_link,-0.436352729797,-0.342388242483,0.0441165789962,0.125824498356,0.0150171317695,0.437181739409
1783583869669058588,1869,1783583869669058588,base_link,-0.436352729797,-0.342388242483,0.0441165789962,0.125824498356,0.0150171317695,0.437181739409
1783583869669058588,1869,1783583869669058588,base_link,-0.436352729797,-0.342388242483,0.0441165789962,0.125824498356,0.0150171317695,0.437181739409
1783583869669058588,1869,1783583869669058588,base_link,-0.436352729797,-0.342388242483,0.0441165789962,0.125824498356,0.0150171317695,0.437181739409
1783583869669058588,1869,1783583869669058588,base_link,-0.436352729797,-0.342388242483,0.0441165789962,0.125824498356,0.0150171317695,0.437181739409
1783583869669058588,1869,1783583869669058588,base_link,-0.436352729797,-0.342388242483,0.0441165789962,0.125824498356,0.0150171317695,0.437181739409
1783583869669058588,1869,1783583869669058588,base_link,-0.436352729797,-0.342388242483,0.0441165789962,0.125824498356,0.0150171317695,0.437181739409
1783583869669058588,1869,1783583869669058588,base_link,-0.436352729797,-0.342388242483,0.0441165789962,0.125824498356,0.0150171317695,0.437181739409
1783583869669058588,1869,1783583869669058588,base_link,-0.436352729797,-0.342388242483,0.0441165789962,0.125824498356,0.0150171317695,0.437181739409
1783583870169152534,1870,1783583870169152534,base_link,-0.379247039557,-0.417251199484,0.0276492889971,0.027743475821,0.0020312947439,0.137639665412
1783583870169152534,1870,1783583870169152534,base_link,-0.379247039557,-0.417251199484,0.0276492889971,0.027743475821,0.0020312947439,0.137639665412
1783583870169152534,1870,1783583870169152534,base_link,-0.379247039557,-0.417251199484,0.0276492889971,0.027743475821,0.0020312947439,0.137639665412
1783583870169152534,1870,1783583870169152534,base_link,-0.379247039557,-0.417251199484,0.0276492889971,0.027743475821,0.0020312947439,0.137639665412
1783583870169152534,1870,1783583870169152534,base_link,-0.379247039557,-0.417251199484,0.0276492889971,0.027743475821,0.0020312947439,0.137639665412
1783583870169152534,1870,1783583870169152534,base_link,-0.379247039557,-0.417251199484,0.0276492889971,0.027743475821,0.0020312947439,0.137639665412
1783583870169152534,1870,1783583870169152534,base_link,-0.379247039557,-0.417251199484,0.0276492889971,0.027743475821,0.0020312947439,0.137639665412
1783583870169152534,1870,1783583870169152534,base_link,-0.379247039557,-0.417251199484,0.0276492889971,0.027743475821,0.0020312947439,0.137639665412
1783583870169152534,1870,1783583870169152534,base_link,-0.379247039557,-0.417251199484,0.0276492889971,0.027743475821,0.0020312947439,0.137639665412
1783583870169152534,1870,1783583870169152534,base_link,-0.379247039557,-0.417251199484,0.0276492889971,0.027743475821,0.0020312947439,0.137639665412
1783583870669252445,1871,1783583870669252445,base_link,-0.401763707399,-0.396880358458,0.0227382797748,-0.102363920853,-0.0316307734323,-0.28336714445
1783583870669252445,1871,1783583870669252445,base_link,-0.401763707399,-0.396880358458,0.0227382797748,-0.102363920853,-0.0316307734323,-0.28336714445
1783583870669252445,1871,1783583870669252445,base_link,-0.401763707399,-0.396880358458,0.0227382797748,-0.102363920853,-0.0316307734323,-0.28336714445
1783583870669252445,1871,1783583870669252445,base_link,-0.401763707399,-0.396880358458,0.0227382797748,-0.102363920853,-0.0316307734323,-0.28336714445
1783583870669252445,1871,1783583870669252445,base_link,-0.401763707399,-0.396880358458,0.0227382797748,-0.102363920853,-0.0316307734323,-0.28336714445
1783583870669252445,1871,1783583870669252445,base_link,-0.401763707399,-0.396880358458,0.0227382797748,-0.102363920853,-0.0316307734323,-0.28336714445
1783583870669252445,1871,1783583870669252445,base_link,-0.401763707399,-0.396880358458,0.0227382797748,-0.102363920853,-0.0316307734323,-0.28336714445
1783583870669252445,1871,1783583870669252445,base_link,-0.401763707399,-0.396880358458,0.0227382797748,-0.102363920853,-0.0316307734323,-0.28336714445
1783583870669252445,1871,1783583870669252445,base_link,-0.401763707399,-0.396880358458,0.0227382797748,-0.102363920853,-0.0316307734323,-0.28336714445
1783583870669252445,1871,1783583870669252445,base_link,-0.401763707399,-0.396880358458,0.0227382797748,-0.102363920853,-0.0316307734323,-0.28336714445
1783583871168973046,1872,1783583871168973046,base_link,-0.416988521814,-0.3630618155,0.0274820458144,-0.029249427024,0.00891872161331,-0.0644541645748
1783583871168973046,1872,1783583871168973046,base_link,-0.416988521814,-0.3630618155,0.0274820458144,-0.029249427024,0.00891872161331,-0.0644541645748
1783583871168973046,1872,1783583871168973046,base_link,-0.416988521814,-0.3630618155,0.0274820458144,-0.029249427024,0.00891872161331,-0.0644541645748
1783583871168973046,1872,1783583871168973046,base_link,-0.416988521814,-0.3630618155,0.0274820458144,-0.029249427024,0.00891872161331,-0.0644541645748
1783583871168973046,1872,1783583871168973046,base_link,-0.416988521814,-0.3630618155,0.0274820458144,-0.029249427024,0.00891872161331,-0.0644541645748
1783583871168973046,1872,1783583871168973046,base_link,-0.416988521814,-0.3630618155,0.0274820458144,-0.029249427024,0.00891872161331,-0.0644541645748
1783583871168973046,1872,1783583871168973046,base_link,-0.416988521814,-0.3630618155,0.0274820458144,-0.029249427024,0.00891872161331,-0.0644541645748
1783583871168973046,1872,1783583871168973046,base_link,-0.416988521814,-0.3630618155,0.0274820458144,-0.029249427024,0.00891872161331,-0.0644541645748
1783583871168973046,1872,1783583871168973046,base_link,-0.416988521814,-0.3630618155,0.0274820458144,-0.029249427024,0.00891872161331,-0.0644541645748
1783583871168973046,1872,1783583871168973046,base_link,-0.416988521814,-0.3630618155,0.0274820458144,-0.029249427024,0.00891872161331,-0.0644541645748
1783583871669214120,1873,1783583871669214120,base_link,-0.384100824594,-0.370316922665,0.0172395985574,0.109545053987,0.0249594679832,0.419699232896
1783583871669214120,1873,1783583871669214120,base_link,-0.384100824594,-0.370316922665,0.0172395985574,0.109545053987,0.0249594679832,0.419699232896
1783583871669214120,1873,1783583871669214120,base_link,-0.384100824594,-0.370316922665,0.0172395985574,0.109545053987,0.0249594679832,0.419699232896
1783583871669214120,1873,1783583871669214120,base_link,-0.384100824594,-0.370316922665,0.0172395985574,0.109545053987,0.0249594679832,0.419699232896
1783583871669214120,1873,1783583871669214120,base_link,-0.384100824594,-0.370316922665,0.0172395985574,0.109545053987,0.0249594679832,0.419699232896
1783583871669214120,1873,1783583871669214120,base_link,-0.384100824594,-0.370316922665,0.0172395985574,0.109545053987,0.0249594679832,0.419699232896
1783583871669214120,1873,1783583871669214120,base_link,-0.384100824594,-0.370316922665,0.0172395985574,0.109545053987,0.0249594679832,0.419699232896
1783583871669214120,1873,1783583871669214120,base_link,-0.384100824594,-0.370316922665,0.0172395985574,0.109545053987,0.0249594679832,0.419699232896
1783583871669214120,1873,1783583871669214120,base_link,-0.384100824594,-0.370316922665,0.0172395985574,0.109545053987,0.0249594679832,0.419699232896
1783583871669214120,1873,1783583871669214120,base_link,-0.384100824594,-0.370316922665,0.0172395985574,0.109545053987,0.0249594679832,0.419699232896
1783583872168946433,1874,1783583872168946433,base_link,-0.319533586502,-0.443591117859,0.00515004852787,0.0631287253241,0.00658884968407,0.250594059671
1783583872168946433,1874,1783583872168946433,base_link,-0.319533586502,-0.443591117859,0.00515004852787,0.0631287253241,0.00658884968407,0.250594059671
1783583872168946433,1874,1783583872168946433,base_link,-0.319533586502,-0.443591117859,0.00515004852787,0.0631287253241,0.00658884968407,0.250594059671
1783583872168946433,1874,1783583872168946433,base_link,-0.319533586502,-0.443591117859,0.00515004852787,0.0631287253241,0.00658884968407,0.250594059671
1783583872168946433,1874,1783583872168946433,base_link,-0.319533586502,-0.443591117859,0.00515004852787,0.0631287253241,0.00658884968407,0.250594059671
1783583872168946433,1874,1783583872168946433,base_link,-0.319533586502,-0.443591117859,0.00515004852787,0.0631287253241,0.00658884968407,0.250594059671
1783583872168946433,1874,1783583872168946433,base_link,-0.319533586502,-0.443591117859,0.00515004852787,0.0631287253241,0.00658884968407,0.250594059671
1783583872168946433,1874,1783583872168946433,base_link,-0.319533586502,-0.443591117859,0.00515004852787,0.0631287253241,0.00658884968407,0.250594059671
1783583872168946433,1874,1783583872168946433,base_link,-0.319533586502,-0.443591117859,0.00515004852787,0.0631287253241,0.00658884968407,0.250594059671
1783583872168946433,1874,1783583872168946433,base_link,-0.319533586502,-0.443591117859,0.00515004852787,0.0631287253241,0.00658884968407,0.250594059671
1783583872669228810,1875,1783583872669228810,base_link,-0.311959028244,-0.43293094635,-0.00829394254833,-0.0905205711577,-0.0301080383968,-0.267092635982
1783583872669228810,1875,1783583872669228810,base_link,-0.311959028244,-0.43293094635,-0.00829394254833,-0.0905205711577,-0.0301080383968,-0.267092635982
1783583872669228810,1875,1783583872669228810,base_link,-0.311959028244,-0.43293094635,-0.00829394254833,-0.0905205711577,-0.0301080383968,-0.267092635982
1783583872669228810,1875,1783583872669228810,base_link,-0.311959028244,-0.43293094635,-0.00829394254833,-0.0905205711577,-0.0301080383968,-0.267092635982
1783583872669228810,1875,1783583872669228810,base_link,-0.311959028244,-0.43293094635,-0.00829394254833,-0.0905205711577,-0.0301080383968,-0.267092635982
1783583872669228810,1875,1783583872669228810,base_link,-0.311959028244,-0.43293094635,-0.00829394254833,-0.0905205711577,-0.0301080383968,-0.267092635982
1783583872669228810,1875,1783583872669228810,base_link,-0.311959028244,-0.43293094635,-0.00829394254833,-0.0905205711577,-0.0301080383968,-0.267092635982
1783583872669228810,1875,1783583872669228810,base_link,-0.311959028244,-0.43293094635,-0.00829394254833,-0.0905205711577,-0.0301080383968,-0.267092635982
1783583872669228810,1875,1783583872669228810,base_link,-0.311959028244,-0.43293094635,-0.00829394254833,-0.0905205711577,-0.0301080383968,-0.267092635982
1783583872669228810,1875,1783583872669228810,base_link,-0.311959028244,-0.43293094635,-0.00829394254833,-0.0905205711577,-0.0301080383968,-0.267092635982
1783583873168949094,1876,1783583873168949094,base_link,-0.375649034977,-0.390134632587,-0.00885182153434,-0.0657765538256,-0.0194790114112,-0.186404468512
1783583873168949094,1876,1783583873168949094,base_link,-0.375649034977,-0.390134632587,-0.00885182153434,-0.0657765538256,-0.0194790114112,-0.186404468512
1783583873168949094,1876,1783583873168949094,base_link,-0.375649034977,-0.390134632587,-0.00885182153434,-0.0657765538256,-0.0194790114112,-0.186404468512
1783583873168949094,1876,1783583873168949094,base_link,-0.375649034977,-0.390134632587,-0.00885182153434,-0.0657765538256,-0.0194790114112,-0.186404468512
1783583873168949094,1876,1783583873168949094,base_link,-0.375649034977,-0.390134632587,-0.00885182153434,-0.0657765538256,-0.0194790114112,-0.186404468512
1783583873168949094,1876,1783583873168949094,base_link,-0.375649034977,-0.390134632587,-0.00885182153434,-0.0657765538256,-0.0194790114112,-0.186404468512
1783583873168949094,1876,1783583873168949094,base_link,-0.375649034977,-0.390134632587,-0.00885182153434,-0.0657765538256,-0.0194790114112,-0.186404468512
1783583873168949094,1876,1783583873168949094,base_link,-0.375649034977,-0.390134632587,-0.00885182153434,-0.0657765538256,-0.0194790114112,-0.186404468512
1783583873168949094,1876,1783583873168949094,base_link,-0.375649034977,-0.390134632587,-0.00885182153434,-0.0657765538256,-0.0194790114112,-0.186404468512
1783583873168949094,1876,1783583873168949094,base_link,-0.375649034977,-0.390134632587,-0.00885182153434,-0.0657765538256,-0.0194790114112,-0.186404468512
1783583873669254299,1877,1783583873669254299,base_link,-0.343938946724,-0.390302360058,-0.00998457986861,0.100300482773,0.0370947870439,0.373915784701
1783583873669254299,1877,1783583873669254299,base_link,-0.343938946724,-0.390302360058,-0.00998457986861,0.100300482773,0.0370947870439,0.373915784701
1783583873669254299,1877,1783583873669254299,base_link,-0.343938946724,-0.390302360058,-0.00998457986861,0.100300482773,0.0370947870439,0.373915784701
1783583873669254299,1877,1783583873669254299,base_link,-0.343938946724,-0.390302360058,-0.00998457986861,0.100300482773,0.0370947870439,0.373915784701
1783583873669254299,1877,1783583873669254299,base_link,-0.343938946724,-0.390302360058,-0.00998457986861,0.100300482773,0.0370947870439,0.373915784701
1783583873669254299,1877,1783583873669254299,base_link,-0.343938946724,-0.390302360058,-0.00998457986861,0.100300482773,0.0370947870439,0.373915784701
1783583873669254299,1877,1783583873669254299,base_link,-0.343938946724,-0.390302360058,-0.00998457986861,0.100300482773,0.0370947870439,0.373915784701
1783583873669254299,1877,1783583873669254299,base_link,-0.343938946724,-0.390302360058,-0.00998457986861,0.100300482773,0.0370947870439,0.373915784701
1783583873669254299,1877,1783583873669254299,base_link,-0.343938946724,-0.390302360058,-0.00998457986861,0.100300482773,0.0370947870439,0.373915784701
1783583873669254299,1877,1783583873669254299,base_link,-0.343938946724,-0.390302360058,-0.00998457986861,0.100300482773,0.0370947870439,0.373915784701
1783583874169072668,1878,1783583874169072668,base_link,-0.279725730419,-0.44785284996,-0.00355637026951,0.0614405269017,0.0188737301851,0.241165851684
1783583874169072668,1878,1783583874169072668,base_link,-0.279725730419,-0.44785284996,-0.00355637026951,0.0614405269017,0.0188737301851,0.241165851684
1783583874169072668,1878,1783583874169072668,base_link,-0.279725730419,-0.44785284996,-0.00355637026951,0.0614405269017,0.0188737301851,0.241165851684
1783583874169072668,1878,1783583874169072668,base_link,-0.279725730419,-0.44785284996,-0.00355637026951,0.0614405269017,0.0188737301851,0.241165851684
1783583874169072668,1878,1783583874169072668,base_link,-0.279725730419,-0.44785284996,-0.00355637026951,0.0614405269017,0.0188737301851,0.241165851684
1783583874169072668,1878,1783583874169072668,base_link,-0.279725730419,-0.44785284996,-0.00355637026951,0.0614405269017,0.0188737301851,0.241165851684
1783583874169072668,1878,1783583874169072668,base_link,-0.279725730419,-0.44785284996,-0.00355637026951,0.0614405269017,0.0188737301851,0.241165851684
1783583874169072668,1878,1783583874169072668,base_link,-0.279725730419,-0.44785284996,-0.00355637026951,0.0614405269017,0.0188737301851,0.241165851684
1783583874169072668,1878,1783583874169072668,base_link,-0.279725730419,-0.44785284996,-0.00355637026951,0.0614405269017,0.0188737301851,0.241165851684
1783583874169072668,1878,1783583874169072668,base_link,-0.279725730419,-0.44785284996,-0.00355637026951,0.0614405269017,0.0188737301851,0.241165851684
1783583874669180725,1879,1783583874669180725,base_link,-0.274212479591,-0.430902510881,-0.00170315429568,-0.0943108220979,-0.0453090289966,-0.263856442781
1783583874669180725,1879,1783583874669180725,base_link,-0.274212479591,-0.430902510881,-0.00170315429568,-0.0943108220979,-0.0453090289966,-0.263856442781
1783583874669180725,1879,1783583874669180725,base_link,-0.274212479591,-0.430902510881,-0.00170315429568,-0.0943108220979,-0.0453090289966,-0.263856442781
1783583874669180725,1879,1783583874669180725,base_link,-0.274212479591,-0.430902510881,-0.00170315429568,-0.0943108220979,-0.0453090289966,-0.263856442781
1783583874669180725,1879,1783583874669180725,base_link,-0.274212479591,-0.430902510881,-0.00170315429568,-0.0943108220979,-0.0453090289966,-0.263856442781
1783583874669180725,1879,1783583874669180725,base_link,-0.274212479591,-0.430902510881,-0.00170315429568,-0.0943108220979,-0.0453090289966,-0.263856442781
1783583874669180725,1879,1783583874669180725,base_link,-0.274212479591,-0.430902510881,-0.00170315429568,-0.0943108220979,-0.0453090289966,-0.263856442781
1783583874669180725,1879,1783583874669180725,base_link,-0.274212479591,-0.430902510881,-0.00170315429568,-0.0943108220979,-0.0453090289966,-0.263856442781
1783583874669180725,1879,1783583874669180725,base_link,-0.274212479591,-0.430902510881,-0.00170315429568,-0.0943108220979,-0.0453090289966,-0.263856442781
1783583874669180725,1879,1783583874669180725,base_link,-0.274212479591,-0.430902510881,-0.00170315429568,-0.0943108220979,-0.0453090289966,-0.263856442781
1783583875168861637,1880,1783583875168861637,base_link,-0.343546926975,-0.392720729113,0.016949897632,-0.0674981685678,-0.0197599610535,-0.182753359384
1783583875168861637,1880,1783583875168861637,base_link,-0.343546926975,-0.392720729113,0.016949897632,-0.0674981685678,-0.0197599610535,-0.182753359384
1783583875168861637,1880,1783583875168861637,base_link,-0.343546926975,-0.392720729113,0.016949897632,-0.0674981685678,-0.0197599610535,-0.182753359384
1783583875168861637,1880,1783583875168861637,base_link,-0.343546926975,-0.392720729113,0.016949897632,-0.0674981685678,-0.0197599610535,-0.182753359384
1783583875168861637,1880,1783583875168861637,base_link,-0.343546926975,-0.392720729113,0.016949897632,-0.0674981685678,-0.0197599610535,-0.182753359384
1783583875168861637,1880,1783583875168861637,base_link,-0.343546926975,-0.392720729113,0.016949897632,-0.0674981685678,-0.0197599610535,-0.182753359384
1783583875168861637,1880,1783583875168861637,base_link,-0.343546926975,-0.392720729113,0.016949897632,-0.0674981685678,-0.0197599610535,-0.182753359384
1783583875168861637,1880,1783583875168861637,base_link,-0.343546926975,-0.392720729113,0.016949897632,-0.0674981685678,-0.0197599610535,-0.182753359384
1783583875168861637,1880,1783583875168861637,base_link,-0.343546926975,-0.392720729113,0.016949897632,-0.0674981685678,-0.0197599610535,-0.182753359384
1783583875168861637,1880,1783583875168861637,base_link,-0.343546926975,-0.392720729113,0.016949897632,-0.0674981685678,-0.0197599610535,-0.182753359384
1783583875669019219,1881,1783583875669019219,base_link,-0.322283506393,-0.376153051853,0.0293734334409,0.099819359742,0.0511144656883,0.368724913865
1783583875669019219,1881,1783583875669019219,base_link,-0.322283506393,-0.376153051853,0.0293734334409,0.099819359742,0.0511144656883,0.368724913865
1783583875669019219,1881,1783583875669019219,base_link,-0.322283506393,-0.376153051853,0.0293734334409,0.099819359742,0.0511144656883,0.368724913865
1783583875669019219,1881,1783583875669019219,base_link,-0.322283506393,-0.376153051853,0.0293734334409,0.099819359742,0.0511144656883,0.368724913865
1783583875669019219,1881,1783583875669019219,base_link,-0.322283506393,-0.376153051853,0.0293734334409,0.099819359742,0.0511144656883,0.368724913865
1783583875669019219,1881,1783583875669019219,base_link,-0.322283506393,-0.376153051853,0.0293734334409,0.099819359742,0.0511144656883,0.368724913865
1783583875669019219,1881,1783583875669019219,base_link,-0.322283506393,-0.376153051853,0.0293734334409,0.099819359742,0.0511144656883,0.368724913865
1783583875669019219,1881,1783583875669019219,base_link,-0.322283506393,-0.376153051853,0.0293734334409,0.099819359742,0.0511144656883,0.368724913865
1783583875669019219,1881,1783583875669019219,base_link,-0.322283506393,-0.376153051853,0.0293734334409,0.099819359742,0.0511144656883,0.368724913865
1783583875669019219,1881,1783583875669019219,base_link,-0.322283506393,-0.376153051853,0.0293734334409,0.099819359742,0.0511144656883,0.368724913865
1783583876168926494,1882,1783583876168926494,base_link,-0.250777751207,-0.41955062747,0.0338777750731,0.0700509086366,0.0286098035781,0.229067907207
1783583876168926494,1882,1783583876168926494,base_link,-0.250777751207,-0.41955062747,0.0338777750731,0.0700509086366,0.0286098035781,0.229067907207
1783583876168926494,1882,1783583876168926494,base_link,-0.250777751207,-0.41955062747,0.0338777750731,0.0700509086366,0.0286098035781,0.229067907207
1783583876168926494,1882,1783583876168926494,base_link,-0.250777751207,-0.41955062747,0.0338777750731,0.0700509086366,0.0286098035781,0.229067907207
1783583876168926494,1882,1783583876168926494,base_link,-0.250777751207,-0.41955062747,0.0338777750731,0.0700509086366,0.0286098035781,0.229067907207
1783583876168926494,1882,1783583876168926494,base_link,-0.250777751207,-0.41955062747,0.0338777750731,0.0700509086366,0.0286098035781,0.229067907207
1783583876168926494,1882,1783583876168926494,base_link,-0.250777751207,-0.41955062747,0.0338777750731,0.0700509086366,0.0286098035781,0.229067907207
1783583876168926494,1882,1783583876168926494,base_link,-0.250777751207,-0.41955062747,0.0338777750731,0.0700509086366,0.0286098035781,0.229067907207
1783583876168926494,1882,1783583876168926494,base_link,-0.250777751207,-0.41955062747,0.0338777750731,0.0700509086366,0.0286098035781,0.229067907207
1783583876168926494,1882,1783583876168926494,base_link,-0.250777751207,-0.41955062747,0.0338777750731,0.0700509086366,0.0286098035781,0.229067907207
1783583876668966173,1883,1783583876668966173,base_link,-0.243405297399,-0.390820622444,0.0248553082347,-0.0821399192188,-0.0467961103879,-0.278919576421
1783583876668966173,1883,1783583876668966173,base_link,-0.243405297399,-0.390820622444,0.0248553082347,-0.0821399192188,-0.0467961103879,-0.278919576421
1783583876668966173,1883,1783583876668966173,base_link,-0.243405297399,-0.390820622444,0.0248553082347,-0.0821399192188,-0.0467961103879,-0.278919576421
1783583876668966173,1883,1783583876668966173,base_link,-0.243405297399,-0.390820622444,0.0248553082347,-0.0821399192188,-0.0467961103879,-0.278919576421
1783583876668966173,1883,1783583876668966173,base_link,-0.243405297399,-0.390820622444,0.0248553082347,-0.0821399192188,-0.0467961103879,-0.278919576421
1783583876668966173,1883,1783583876668966173,base_link,-0.243405297399,-0.390820622444,0.0248553082347,-0.0821399192188,-0.0467961103879,-0.278919576421
1783583876668966173,1883,1783583876668966173,base_link,-0.243405297399,-0.390820622444,0.0248553082347,-0.0821399192188,-0.0467961103879,-0.278919576421
1783583876668966173,1883,1783583876668966173,base_link,-0.243405297399,-0.390820622444,0.0248553082347,-0.0821399192188,-0.0467961103879,-0.278919576421
1783583876668966173,1883,1783583876668966173,base_link,-0.243405297399,-0.390820622444,0.0248553082347,-0.0821399192188,-0.0467961103879,-0.278919576421
1783583876668966173,1883,1783583876668966173,base_link,-0.243405297399,-0.390820622444,0.0248553082347,-0.0821399192188,-0.0467961103879,-0.278919576421
1783583877168930387,1884,1783583877168930387,base_link,-0.313273638487,-0.351925611496,0.0334014110267,-0.0666553447121,-0.0286591431779,-0.205550438578
1783583877168930387,1884,1783583877168930387,base_link,-0.313273638487,-0.351925611496,0.0334014110267,-0.0666553447121,-0.0286591431779,-0.205550438578
1783583877168930387,1884,1783583877168930387,base_link,-0.313273638487,-0.351925611496,0.0334014110267,-0.0666553447121,-0.0286591431779,-0.205550438578
1783583877168930387,1884,1783583877168930387,base_link,-0.313273638487,-0.351925611496,0.0334014110267,-0.0666553447121,-0.0286591431779,-0.205550438578
1783583877168930387,1884,1783583877168930387,base_link,-0.313273638487,-0.351925611496,0.0334014110267,-0.0666553447121,-0.0286591431779,-0.205550438578
1783583877168930387,1884,1783583877168930387,base_link,-0.313273638487,-0.351925611496,0.0334014110267,-0.0666553447121,-0.0286591431779,-0.205550438578
1783583877168930387,1884,1783583877168930387,base_link,-0.313273638487,-0.351925611496,0.0334014110267,-0.0666553447121,-0.0286591431779,-0.205550438578
1783583877168930387,1884,1783583877168930387,base_link,-0.313273638487,-0.351925611496,0.0334014110267,-0.0666553447121,-0.0286591431779,-0.205550438578
1783583877168930387,1884,1783583877168930387,base_link,-0.313273638487,-0.351925611496,0.0334014110267,-0.0666553447121,-0.0286591431779,-0.205550438578
1783583877168930387,1884,1783583877168930387,base_link,-0.313273638487,-0.351925611496,0.0334014110267,-0.0666553447121,-0.0286591431779,-0.205550438578
1783583877669059504,1885,1783583877669059504,base_link,-0.281747192144,-0.334577739239,0.0286560282111,0.0942236740702,0.0590828305622,0.359976289562
1783583877669059504,1885,1783583877669059504,base_link,-0.281747192144,-0.334577739239,0.0286560282111,0.0942236740702,0.0590828305622,0.359976289562
1783583877669059504,1885,1783583877669059504,base_link,-0.281747192144,-0.334577739239,0.0286560282111,0.0942236740702,0.0590828305622,0.359976289562
1783583877669059504,1885,1783583877669059504,base_link,-0.281747192144,-0.334577739239,0.0286560282111,0.0942236740702,0.0590828305622,0.359976289562
1783583877669059504,1885,1783583877669059504,base_link,-0.281747192144,-0.334577739239,0.0286560282111,0.0942236740702,0.0590828305622,0.359976289562
1783583877669059504,1885,1783583877669059504,base_link,-0.281747192144,-0.334577739239,0.0286560282111,0.0942236740702,0.0590828305622,0.359976289562
1783583877669059504,1885,1783583877669059504,base_link,-0.281747192144,-0.334577739239,0.0286560282111,0.0942236740702,0.0590828305622,0.359976289562
1783583877669059504,1885,1783583877669059504,base_link,-0.281747192144,-0.334577739239,0.0286560282111,0.0942236740702,0.0590828305622,0.359976289562
1783583877669059504,1885,1783583877669059504,base_link,-0.281747192144,-0.334577739239,0.0286560282111,0.0942236740702,0.0590828305622,0.359976289562
1783583877669059504,1885,1783583877669059504,base_link,-0.281747192144,-0.334577739239,0.0286560282111,0.0942236740702,0.0590828305622,0.359976289562
1783583878168962459,1886,1783583878168962459,base_link,-0.210465177894,-0.377483189106,0.0245530288666,0.0632868567465,0.0234992058701,0.224081168363
1783583878168962459,1886,1783583878168962459,base_link,-0.210465177894,-0.377483189106,0.0245530288666,0.0632868567465,0.0234992058701,0.224081168363
1783583878168962459,1886,1783583878168962459,base_link,-0.210465177894,-0.377483189106,0.0245530288666,0.0632868567465,0.0234992058701,0.224081168363
1783583878168962459,1886,1783583878168962459,base_link,-0.210465177894,-0.377483189106,0.0245530288666,0.0632868567465,0.0234992058701,0.224081168363
1783583878168962459,1886,1783583878168962459,base_link,-0.210465177894,-0.377483189106,0.0245530288666,0.0632868567465,0.0234992058701,0.224081168363
1783583878168962459,1886,1783583878168962459,base_link,-0.210465177894,-0.377483189106,0.0245530288666,0.0632868567465,0.0234992058701,0.224081168363
1783583878168962459,1886,1783583878168962459,base_link,-0.210465177894,-0.377483189106,0.0245530288666,0.0632868567465,0.0234992058701,0.224081168363
1783583878168962459,1886,1783583878168962459,base_link,-0.210465177894,-0.377483189106,0.0245530288666,0.0632868567465,0.0234992058701,0.224081168363
1783583878168962459,1886,1783583878168962459,base_link,-0.210465177894,-0.377483189106,0.0245530288666,0.0632868567465,0.0234992058701,0.224081168363
1783583878168962459,1886,1783583878168962459,base_link,-0.210465177894,-0.377483189106,0.0245530288666,0.0632868567465,0.0234992058701,0.224081168363
1783583878668949297,1887,1783583878668949297,base_link,-0.204502910376,-0.35248079896,0.00790234096348,-0.0873797245478,-0.0525682615337,-0.274414153941
1783583878668949297,1887,1783583878668949297,base_link,-0.204502910376,-0.35248079896,0.00790234096348,-0.0873797245478,-0.0525682615337,-0.274414153941
1783583878668949297,1887,1783583878668949297,base_link,-0.204502910376,-0.35248079896,0.00790234096348,-0.0873797245478,-0.0525682615337,-0.274414153941
1783583878668949297,1887,1783583878668949297,base_link,-0.204502910376,-0.35248079896,0.00790234096348,-0.0873797245478,-0.0525682615337,-0.274414153941
1783583878668949297,1887,1783583878668949297,base_link,-0.204502910376,-0.35248079896,0.00790234096348,-0.0873797245478,-0.0525682615337,-0.274414153941
1783583878668949297,1887,1783583878668949297,base_link,-0.204502910376,-0.35248079896,0.00790234096348,-0.0873797245478,-0.0525682615337,-0.274414153941
1783583878668949297,1887,1783583878668949297,base_link,-0.204502910376,-0.35248079896,0.00790234096348,-0.0873797245478,-0.0525682615337,-0.274414153941
1783583878668949297,1887,1783583878668949297,base_link,-0.204502910376,-0.35248079896,0.00790234096348,-0.0873797245478,-0.0525682615337,-0.274414153941
1783583878668949297,1887,1783583878668949297,base_link,-0.204502910376,-0.35248079896,0.00790234096348,-0.0873797245478,-0.0525682615337,-0.274414153941
1783583878668949297,1887,1783583878668949297,base_link,-0.204502910376,-0.35248079896,0.00790234096348,-0.0873797245478,-0.0525682615337,-0.274414153941
1783583879168996439,1888,1783583879168996439,base_link,-0.275255918503,-0.324786901474,0.00718413898721,-0.0484354129328,-0.0287868247061,-0.196768804433
1783583879168996439,1888,1783583879168996439,base_link,-0.275255918503,-0.324786901474,0.00718413898721,-0.0484354129328,-0.0287868247061,-0.196768804433
